{"type":"FeatureCollection","name":"th hospital db","features":[{"type":"Feature","properties":{"h_code":"12254","name":"กรมควบคุมโรค","address_th":"ฝ 88 21 ถ. ติวานนท์ อำเภอเมือง อำเภอเมืองนนทบุรี นนทบุรี 11000 ไทย","coordinates":{"lat":13.8534383,"lng":100.527144},"province":"นนทบุรี","PROV_CODE":"12"},"geometry":{"type":"Point","coordinates":[100.527144,13.8534383]}},{"type":"Feature","properties":{"h_code":"12499","name":"สำนักอนามัยกรุงเทพมหานคร","address_th":"ศาลาว่าการกทม.2 ถ.มิตรไมตรี เขตดินแดง กรุงเทพมหานคร 10400 ไทย","coordinates":{"lat":13.770731,"lng":100.553956},"province":"กรุงเทพมหานคร","PROV_CODE":"10"},"geometry":{"type":"Point","coordinates":[100.553956,13.770731]}},{"type":"Feature","properties":{"h_code":"10713","name":"โรงพยาบาลนครพิงค์","address_th":"159 หมู่ที่ 10 ตำบล ดอนแก้ว อำเภอแม่ริม เชียงใหม่ 50180 ไทย","coordinates":{"lat":18.8516999,"lng":98.9681379},"province":"เชียงใหม่","PROV_CODE":"50"},"geometry":{"type":"Point","coordinates":[98.9681379,18.8516999]}},{"type":"Feature","properties":{"h_code":"10741","name":"โรงพยาบาลวชิระภูเก็ต","address_th":"353 ถ. เยาวราช ตำบลตลาดใหญ่ อำเภอเมืองภูเก็ต ภูเก็ต 83000 ไทย","coordinates":{"lat":7.8967544,"lng":98.3838207},"province":"ภูเก็ต","PROV_CODE":"83"},"geometry":{"type":"Point","coordinates":[98.3838207,7.8967544]}},{"type":"Feature","properties":{"h_code":"11356","name":"โรงพยาบาลถลาง","address_th":"หมู่ที่ 1 358 ตำบล เทพกระษัตรี อำเภอถลาง ภูเก็ต 83110 ไทย","coordinates":{"lat":8.0230877,"lng":98.33871289999999},"province":"ภูเก็ต","PROV_CODE":"83"},"geometry":{"type":"Point","coordinates":[98.33871289999999,8.0230877]}},{"type":"Feature","properties":{"h_code":"10666","name":"โรงพยาบาลมหาราชนครราชสีมา","address_th":"49 ถนน ช้างเผือก ตำบลในเมือง อำเภอเมืองนครราชสีมา นครราชสีมา 30000 ไทย","coordinates":{"lat":14.984712,"lng":102.1035413},"province":"นครราชสีมา","PROV_CODE":"30"},"geometry":{"type":"Point","coordinates":[102.1035413,14.984712]}},{"type":"Feature","properties":{"h_code":"10687","name":"โรงพยาบาลปทุมธานี","address_th":"7 ถนน ปทุมธานี - ลาดหลุมแก้ว ตำบล บางปรอก อำเภอ เมืองปทุมธานี ปทุมธานี 12000 ไทย","coordinates":{"lat":14.020474,"lng":100.5233701},"province":"ปทุมธานี","PROV_CODE":"13"},"geometry":{"type":"Point","coordinates":[100.5233701,14.020474]}},{"type":"Feature","properties":{"h_code":"14173","name":"โรงพยาบาลตำรวจ","address_th":"492/1 ถนน พระรามที่ ๑ แขวง ปทุมวัน เขตปทุมวัน กรุงเทพมหานคร 10330 ไทย","coordinates":{"lat":13.7433902,"lng":100.5383973},"province":"กรุงเทพมหานคร","PROV_CODE":"10"},"geometry":{"type":"Point","coordinates":[100.5383973,13.7433902]}},{"type":"Feature","properties":{"h_code":"10685","name":"โรงพยาบาลสมุทรปราการ","address_th":"71 ถนน จักกะพาก ตำบลปากน้ำ อำเภอเมืองสมุทรปราการ สมุทรปราการ 10270 ไทย","coordinates":{"lat":13.5838639,"lng":100.5973709},"province":"สมุทรปราการ","PROV_CODE":"11"},"geometry":{"type":"Point","coordinates":[100.5973709,13.5838639]}},{"type":"Feature","properties":{"h_code":"10664","name":"โรงพยาบาลพระปกเกล้า","address_th":"38 ถนน เลียบเนิน ตำบลวัดใหม่ อำเภอเมืองจันทบุรี จันทบุรี 22000 ไทย","coordinates":{"lat":12.6042716,"lng":102.1023517},"province":"จันทบุรี","PROV_CODE":"22"},"geometry":{"type":"Point","coordinates":[102.1023517,12.6042716]}},{"type":"Feature","properties":{"h_code":"10686","name":"โรงพยาบาลพระนั่งเกล้า","address_th":"91 ถนน นนทบุรี บางกระสอ อำเภอเมืองนนทบุรี นนทบุรี 11000 ไทย","coordinates":{"lat":13.8650761,"lng":100.4813982},"province":"นนทบุรี","PROV_CODE":"12"},"geometry":{"type":"Point","coordinates":[100.4813982,13.8650761]}},{"type":"Feature","properties":{"h_code":"11355","name":"โรงพยาบาลป่าตอง","address_th":"57 Sai Saen Road ตำบล กะทู้ อำเภอกะทู้ ภูเก็ต 83120 ไทย","coordinates":{"lat":7.896478999999999,"lng":98.301867},"province":"ภูเก็ต","PROV_CODE":"83"},"geometry":{"type":"Point","coordinates":[98.301867,7.896478999999999]}},{"type":"Feature","properties":{"h_code":"14638","name":"สำนักงานป้องกันควบคุมโรคที่ 7 จังหวัดขอนแก่น","address_th":"ตำบลในเมือง อำเภอเมืองขอนแก่น ขอนแก่น 40000 ไทย","coordinates":{"lat":16.4241273,"lng":102.8474761},"province":"ขอนแก่น","PROV_CODE":"40"},"geometry":{"type":"Point","coordinates":[102.8474761,16.4241273]}},{"type":"Feature","properties":{"h_code":"10669","name":"โรงพยาบาลสรรพสิทธิประสงค์","address_th":"122 ถนนสรรพสิทธิ์ ตำบล ในเมือง อำเภอเมืองอุบลราชธานี อุบลราชธานี 34000 ไทย","coordinates":{"lat":15.2360899,"lng":104.8654529},"province":"อุบลราชธานี","PROV_CODE":"34"},"geometry":{"type":"Point","coordinates":[104.8654529,15.2360899]}},{"type":"Feature","properties":{"h_code":"10681","name":"โรงพยาบาลสุราษฎร์ธานี","address_th":"56 หมู่ที่ 2 อำเภอเมืองสุราษฎร์ธานี สุราษฎร์ธานี 84000 ไทย","coordinates":{"lat":9.1237537,"lng":99.31000069999999},"province":"สุราษฎร์ธานี","PROV_CODE":"84"},"geometry":{"type":"Point","coordinates":[99.31000069999999,9.1237537]}},{"type":"Feature","properties":{"h_code":"10680","name":"โรงพยาบาลมหาราชนครศรีธรรมราช","address_th":"198 ถ. ราชดำเนิน ตำบล ในเมือง อำเภอเมืองนครศรีธรรมราช นครศรีธรรมราช 80000 ไทย","coordinates":{"lat":8.3900084,"lng":99.9714187},"province":"นครศรีธรรมราช","PROV_CODE":"80"},"geometry":{"type":"Point","coordinates":[99.9714187,8.3900084]}},{"type":"Feature","properties":{"h_code":"10663","name":"โรงพยาบาลระยอง","address_th":"138 ถ. สุขุมวิท ตำบล ท่าประดู่ อำเภอเมืองระยอง ระยอง 21000 ไทย","coordinates":{"lat":12.6821032,"lng":101.2764781},"province":"ระยอง","PROV_CODE":"21"},"geometry":{"type":"Point","coordinates":[101.2764781,12.6821032]}},{"type":"Feature","properties":{"h_code":"10674","name":"โรงพยาบาลเชียงรายประชานุเคราะห์","address_th":"1039 ถนน สถานพยาบาล ตำบล รอบเวียง อำเภอเมืองเชียงราย เชียงราย 57000 ไทย","coordinates":{"lat":19.900744,"lng":99.82918439999999},"province":"เชียงราย","PROV_CODE":"57"},"geometry":{"type":"Point","coordinates":[99.82918439999999,19.900744]}},{"type":"Feature","properties":{"h_code":"10745","name":"โรงพยาบาลสงขลา","address_th":"666 ตำบลพะวง อำเภอเมืองสงขลา สงขลา 90100 ไทย","coordinates":{"lat":7.1421701,"lng":100.5664011},"province":"สงขลา","PROV_CODE":"90"},"geometry":{"type":"Point","coordinates":[100.5664011,7.1421701]}},{"type":"Feature","properties":{"h_code":"10700","name":"โรงพยาบาลศรีสะเกษ","address_th":"859 ถนน กสิกรรม Tambon Muengtai, อำเภอเมืองศรีสะเกษ ศรีสะเกษ 33000 ไทย","coordinates":{"lat":15.1159431,"lng":104.3202915},"province":"ศรีสะเกษ","PROV_CODE":"33"},"geometry":{"type":"Point","coordinates":[104.3202915,15.1159431]}},{"type":"Feature","properties":{"h_code":"10742","name":"โรงพยาบาลเกาะสมุย","address_th":"61 หมู่ 1 ตำบล อ่างทอง อำเภอเกาะสมุย สุราษฎร์ธานี 84140 ไทย","coordinates":{"lat":9.521826299999999,"lng":99.935496},"province":"สุราษฎร์ธานี","PROV_CODE":"84"},"geometry":{"type":"Point","coordinates":[99.935496,9.521826299999999]}},{"type":"Feature","properties":{"h_code":"10708","name":"โรงพยาบาลร้อยเอ็ด","address_th":"111 ถนน รณชัยชาญยุทธ ตำบล ในเมือง อำเภอเมืองร้อยเอ็ด ร้อยเอ็ด 45000 ไทย","coordinates":{"lat":16.0476019,"lng":103.6524306},"province":"ร้อยเอ็ด","PROV_CODE":"45"},"geometry":{"type":"Point","coordinates":[103.6524306,16.0476019]}},{"type":"Feature","properties":{"h_code":"10722","name":"โรงพยาบาลสมเด็จพระเจ้าตากสินมหาราช","address_th":"16 2 ถ. พหลโยธิน ตำบลระแหง อำเภอเมืองตาก ตาก 63000 ไทย","coordinates":{"lat":16.8730199,"lng":99.131596},"province":"ตาก","PROV_CODE":"63"},"geometry":{"type":"Point","coordinates":[99.131596,16.8730199]}},{"type":"Feature","properties":{"h_code":"10738","name":"โรงพยาบาลกระบี่","address_th":"325 ถนน อุตรกิจ ตำบล ปากน้ำ อำเภอเมืองกระบี่ กระบี่ 81000 ไทย","coordinates":{"lat":8.0759563,"lng":98.9151837},"province":"กระบี่","PROV_CODE":"81"},"geometry":{"type":"Point","coordinates":[98.9151837,8.0759563]}},{"type":"Feature","properties":{"h_code":"10734","name":"โรงพยาบาลสมุทรสาคร","address_th":"ตําบล, 1500 ถ. เอกชัย ตำบลมหาชัย อำเภอเมืองสมุทรสาคร สมุทรสาคร 74000 ไทย","coordinates":{"lat":13.5518211,"lng":100.2790579},"province":"สมุทรสาคร","PROV_CODE":"74"},"geometry":{"type":"Point","coordinates":[100.2790579,13.5518211]}},{"type":"Feature","properties":{"h_code":"12249","name":"สถาบันโรคผิวหนัง","address_th":"420/7 ถนน ราชวิถี แขวง ทุ่งพญาไท เขตราชเทวี กรุงเทพมหานคร 10400 ไทย","coordinates":{"lat":13.7657815,"lng":100.5352413},"province":"กรุงเทพมหานคร","PROV_CODE":"10"},"geometry":{"type":"Point","coordinates":[100.5352413,13.7657815]}},{"type":"Feature","properties":{"h_code":"10667","name":"โรงพยาบาลบุรีรัมย์","address_th":"10/1 ถนน หน้าสถานี ตำบล ในเมือง อำเภอเมืองบุรีรัมย์ บุรีรัมย์ 31000 ไทย","coordinates":{"lat":15.0056893,"lng":103.1007268},"province":"บุรีรัมย์","PROV_CODE":"31"},"geometry":{"type":"Point","coordinates":[103.1007268,15.0056893]}},{"type":"Feature","properties":{"h_code":"10668","name":"โรงพยาบาลสุรินทร์","address_th":"ตำบล ในเมือง อำเภอเมืองสุรินทร์ สุรินทร์ 32000 ไทย","coordinates":{"lat":14.8789485,"lng":103.5046206},"province":"สุรินทร์","PROV_CODE":"32"},"geometry":{"type":"Point","coordinates":[103.5046206,14.8789485]}},{"type":"Feature","properties":{"h_code":"10750","name":"โรงพยาบาลนราธิวาสราชนครินทร์","address_th":"ตำบล บางนาค อำเภอเมืองนราธิวาส นราธิวาส 96000 ไทย","coordinates":{"lat":6.4145993,"lng":101.8236545},"province":"นราธิวาส","PROV_CODE":"96"},"geometry":{"type":"Point","coordinates":[101.8236545,6.4145993]}},{"type":"Feature","properties":{"h_code":"10702","name":"โรงพยาบาลชัยภูมิ","address_th":"รพ.ชัยภูมิ ในเมือง เมือง ชัยภูมิ ไทย","coordinates":{"lat":15.8054858,"lng":102.0351486},"province":"ชัยภูมิ","PROV_CODE":"36"},"geometry":{"type":"Point","coordinates":[102.0351486,15.8054858]}},{"type":"Feature","properties":{"h_code":"10699","name":"โรงพยาบาลสมเด็จพระยุพราชสระแก้ว","address_th":"283 ถนนสุวรรณศร ตำบลสระแก้ว อำเภอเมืองสระแก้ว สระแก้ว 27000 ไทย","coordinates":{"lat":13.8168071,"lng":102.0722736},"province":"สระแก้ว","PROV_CODE":"27"},"geometry":{"type":"Point","coordinates":[102.0722736,13.8168071]}},{"type":"Feature","properties":{"h_code":"10662","name":"โรงพยาบาลชลบุรี","address_th":"69 หมู่ที่ 2 ถ. สุขุมวิท ตำบล บ้านสวน อำเภอเมืองชลบุรี ชลบุรี 20000 ไทย","coordinates":{"lat":13.351589,"lng":100.9824486},"province":"ชลบุรี","PROV_CODE":"20"},"geometry":{"type":"Point","coordinates":[100.9824486,13.351589]}},{"type":"Feature","properties":{"h_code":"10675","name":"โรงพยาบาลสวรรค์ประชารักษ์","address_th":"43 ถนน อรรถกวี ตำบลตะเคียนเลื่อน อำเภอเมืองนครสวรรค์ นครสวรรค์ 60000 ไทย","coordinates":{"lat":15.7068592,"lng":100.1384211},"province":"นครสวรรค์","PROV_CODE":"60"},"geometry":{"type":"Point","coordinates":[100.1384211,15.7068592]}},{"type":"Feature","properties":{"h_code":"10706","name":"โรงพยาบาลหนองคาย","address_th":"1158 ตำบล ในเมือง ตำบลในเมือง อำเภอ เมืองหนองคาย หนองคาย 43000 ไทย","coordinates":{"lat":17.8815416,"lng":102.7415855},"province":"หนองคาย","PROV_CODE":"43"},"geometry":{"type":"Point","coordinates":[102.7415855,17.8815416]}},{"type":"Feature","properties":{"h_code":"10671","name":"โรงพยาบาลอุดรธานี","address_th":"33 ถนน เพาะนิยม ตำบล หมากเเข้ง, อำเภอเมืองอุดรธานี อุดรธานี 41000 ไทย","coordinates":{"lat":17.4148862,"lng":102.7800058},"province":"อุดรธานี","PROV_CODE":"41"},"geometry":{"type":"Point","coordinates":[102.7800058,17.4148862]}},{"type":"Feature","properties":{"h_code":"10712","name":"โรงพยาบาลมุกดาหาร","address_th":"24 Pitak Panomket Rd, อำเภอเมืองมุกดาหาร มุกดาหาร 49000 ไทย","coordinates":{"lat":16.5413584,"lng":104.7270089},"province":"มุกดาหาร","PROV_CODE":"49"},"geometry":{"type":"Point","coordinates":[104.7270089,16.5413584]}},{"type":"Feature","properties":{"h_code":"10697","name":"โรงพยาบาลพุทธโสธร","address_th":"174 ถนน มรุพงษ์ ตำบล หน้าเมือง อำเภอเมืองฉะเชิงเทรา ฉะเชิงเทรา 24000 ไทย","coordinates":{"lat":13.6859879,"lng":101.0730604},"province":"ฉะเชิงเทรา","PROV_CODE":"24"},"geometry":{"type":"Point","coordinates":[101.0730604,13.6859879]}},{"type":"Feature","properties":{"h_code":"10739","name":"โรงพยาบาลพังงา","address_th":"436 ตำบล ท้ายช้าง อำเภอเมืองพังงา พังงา 82000 ไทย","coordinates":{"lat":8.44861,"lng":98.52642589999999},"province":"พังงา","PROV_CODE":"82"},"geometry":{"type":"Point","coordinates":[98.52642589999999,8.44861]}},{"type":"Feature","properties":{"h_code":"10677","name":"โรงพยาบาลราชบุรี","address_th":"85 ถนน สมบูรณ์กุล ตำบล หน้าเมือง อำเภอเมืองราชบุรี ราชบุรี 70000 ไทย","coordinates":{"lat":13.5309561,"lng":99.81551139999999},"province":"ราชบุรี","PROV_CODE":"70"},"geometry":{"type":"Point","coordinates":[99.81551139999999,13.5309561]}},{"type":"Feature","properties":{"h_code":"10743","name":"โรงพยาบาลระนอง","address_th":"โรงพยาบาลระนอง ตำบล เขานิเวศน์ เมือง ระนอง 85000 ไทย","coordinates":{"lat":9.9635959,"lng":98.6429187},"province":"ระนอง","PROV_CODE":"85"},"geometry":{"type":"Point","coordinates":[98.6429187,9.9635959]}},{"type":"Feature","properties":{"h_code":"10748","name":"โรงพยาบาลปัตตานี","address_th":"2 ถนน หนองจิก ตำบล สะบารัง อำเภอเมืองปัตตานี ปัตตานี 94000 ไทย","coordinates":{"lat":6.8692991,"lng":101.2488042},"province":"ปัตตานี","PROV_CODE":"94"},"geometry":{"type":"Point","coordinates":[101.2488042,6.8692991]}},{"type":"Feature","properties":{"h_code":"10710","name":"โรงพยาบาลสกลนคร","address_th":"ธาตุเชิงชุม อำเภอ เมืองสกลนคร สกลนคร 47000 ไทย","coordinates":{"lat":17.1633998,"lng":104.1582096},"province":"สกลนคร","PROV_CODE":"47"},"geometry":{"type":"Point","coordinates":[104.1582096,17.1633998]}},{"type":"Feature","properties":{"h_code":"10747","name":"โรงพยาบาลพัทลุง","address_th":"ถนน ราเมศวร์ ตำบล คูหาสวรรค์ อำเภอเมืองพัทลุง พัทลุง 93000 ไทย","coordinates":{"lat":7.614924999999999,"lng":100.0736089},"province":"พัทลุง","PROV_CODE":"93"},"geometry":{"type":"Point","coordinates":[100.0736089,7.614924999999999]}},{"type":"Feature","properties":{"h_code":"10676","name":"โรงพยาบาลพุทธชินราช","address_th":"90 ถนน ศรีธรรมไตรปิฎก อำเภอ เมือง อำเภอเมืองพิษณุโลก พิษณุโลก 65000 ไทย","coordinates":{"lat":16.8084254,"lng":100.2635385},"province":"พิษณุโลก","PROV_CODE":"65"},"geometry":{"type":"Point","coordinates":[100.2635385,16.8084254]}},{"type":"Feature","properties":{"h_code":"10672","name":"โรงพยาบาลลำปาง","address_th":"280 ถ. พหลโยธิน ตำบล หัวเวียง อำเภอเมืองลำปาง ลำปาง 52000 ไทย","coordinates":{"lat":18.2861792,"lng":99.5060807},"province":"ลำปาง","PROV_CODE":"52"},"geometry":{"type":"Point","coordinates":[99.5060807,18.2861792]}},{"type":"Feature","properties":{"h_code":"10707","name":"โรงพยาบาลมหาสารคาม","address_th":"168 ถนน ผดุงวิถี ตำบล ตลาด อำเภอเมืองมหาสารคาม มหาสารคาม 44000 ไทย","coordinates":{"lat":16.1814094,"lng":103.2990884},"province":"มหาสารคาม","PROV_CODE":"44"},"geometry":{"type":"Point","coordinates":[103.2990884,16.1814094]}},{"type":"Feature","properties":{"h_code":"10709","name":"โรงพยาบาลกาฬสินธุ์","address_th":"283 ถนน กาฬสินธุ์ ตำบล กาฬสินธุ์ อำเภอเมืองกาฬสินธุ์ กาฬสินธุ์ 46000 ไทย","coordinates":{"lat":16.4348944,"lng":103.505552},"province":"กาฬสินธุ์","PROV_CODE":"46"},"geometry":{"type":"Point","coordinates":[103.505552,16.4348944]}},{"type":"Feature","properties":{"h_code":"10720","name":"โรงพยาบาลอุทัยธานี","address_th":"56 Rakdadee Rd ตำบล อุทัยใหม่ อำเภอเมืองอุทัยธานี อุทัยธานี 61000 ไทย","coordinates":{"lat":15.3803419,"lng":100.0199671},"province":"อุทัยธานี","PROV_CODE":"61"},"geometry":{"type":"Point","coordinates":[100.0199671,15.3803419]}},{"type":"Feature","properties":{"h_code":"10737","name":"โรงพยาบาลประจวบคีรีขันธ์","address_th":"237 ซอย พิทักษ์ชาติ อำเภอเมืองประจวบคีรีขันธ์ ประจวบคีรีขันธ์ 77000 ไทย","coordinates":{"lat":11.8009757,"lng":99.79575050000001},"province":"ประจวบคีรีขันธ์","PROV_CODE":"77"},"geometry":{"type":"Point","coordinates":[99.79575050000001,11.8009757]}},{"type":"Feature","properties":{"h_code":"10711","name":"โรงพยาบาลนครพนม","address_th":"270 อภิบาลบัญชา ตำบล ในเมือง อำเภอเมืองนครพนม นครพนม 48000 ไทย","coordinates":{"lat":17.4138876,"lng":104.7773892},"province":"นครพนม","PROV_CODE":"48"},"geometry":{"type":"Point","coordinates":[104.7773892,17.4138876]}},{"type":"Feature","properties":{"h_code":"10660","name":"โรงพยาบาลพระนครศรีอยุธยา","address_th":"หมู่ที่ 4 46/1 ถ. อู่ทอง อำเภอ พระนครศรีอยุธยา จังหวัดพระนครศรีอยุธยา 13000 ไทย","coordinates":{"lat":14.3438253,"lng":100.5601252},"province":"พระนครศรีอยุธยา","PROV_CODE":"14"},"geometry":{"type":"Point","coordinates":[100.5601252,14.3438253]}},{"type":"Feature","properties":{"h_code":"10727","name":"โรงพยาบาลเพชรบูรณ์","address_th":"203 ถนน สามัคคีชัย ตำบล ในเมือง อำเภอเมืองเพชรบูรณ์ เพชรบูรณ์ 67000 ไทย","coordinates":{"lat":16.4272651,"lng":101.1534343},"province":"เพชรบูรณ์","PROV_CODE":"67"},"geometry":{"type":"Point","coordinates":[101.1534343,16.4272651]}},{"type":"Feature","properties":{"h_code":"10731","name":"โรงพยาบาลพหลพลพยุหเสนา","address_th":"572 ถ. แสงชูโต ตำบล ปากแพรก อำเภอเมืองกาญจนบุรี กาญจนบุรี 71000 ไทย","coordinates":{"lat":14.0054791,"lng":99.5464707},"province":"กาญจนบุรี","PROV_CODE":"71"},"geometry":{"type":"Point","coordinates":[99.5464707,14.0054791]}},{"type":"Feature","properties":{"h_code":"10717","name":"โรงพยาบาลพะเยา","address_th":"269 ถ. พหลโยธิน ตำบล บ้านต๋อม อำเภอเมืองพะเยา พะเยา 56000 ไทย","coordinates":{"lat":19.1910684,"lng":99.8773951},"province":"พะเยา","PROV_CODE":"56"},"geometry":{"type":"Point","coordinates":[99.8773951,19.1910684]}},{"type":"Feature","properties":{"h_code":"10746","name":"โรงพยาบาลสตูล","address_th":"ตำบล พิมาน อำเภอ เมืองสตูล สตูล 91000 ไทย","coordinates":{"lat":6.6181724,"lng":100.0707916},"province":"สตูล","PROV_CODE":"91"},"geometry":{"type":"Point","coordinates":[100.0707916,6.6181724]}},{"type":"Feature","properties":{"h_code":"10678","name":"โรงพยาบาลเจ้าพระยายมราช","address_th":"950 ถนน พระพันวษา ตำบลท่าพี่เลี้ยง อำเภอเมืองสุพรรณบุรี สุพรรณบุรี 72000 ไทย","coordinates":{"lat":14.4665543,"lng":100.1160747},"province":"สุพรรณบุรี","PROV_CODE":"72"},"geometry":{"type":"Point","coordinates":[100.1160747,14.4665543]}},{"type":"Feature","properties":{"h_code":"10736","name":"โรงพยาบาลพระจอมเกล้า","address_th":"ตำบล คลองกระแซง อำเภอเมืองเพชรบุรี เพชรบุรี 76000 ไทย","coordinates":{"lat":13.1180938,"lng":99.938322},"province":"เพชรบุรี","PROV_CODE":"76"},"geometry":{"type":"Point","coordinates":[99.938322,13.1180938]}},{"type":"Feature","properties":{"h_code":"10690","name":"โรงพยาบาลพระนารายณ์มหาราช","address_th":"260 ถ. พหลโยธิน ตำบล เขาสามยอด อำเภอเมืองลพบุรี ลพบุรี 15000 ไทย","coordinates":{"lat":14.8049099,"lng":100.6525809},"province":"ลพบุรี","PROV_CODE":"16"},"geometry":{"type":"Point","coordinates":[100.6525809,14.8049099]}},{"type":"Feature","properties":{"h_code":"10679","name":"โรงพยาบาลนครปฐม","address_th":"196 ถนน เทศา ตำบลพระปฐมเจดีย์ อำเภอเมืองนครปฐม นครปฐม 73000 ไทย","coordinates":{"lat":13.8191484,"lng":100.0751925},"province":"นครปฐม","PROV_CODE":"73"},"geometry":{"type":"Point","coordinates":[100.0751925,13.8191484]}},{"type":"Feature","properties":{"h_code":"10724","name":"โรงพยาบาลสุโขทัย","address_th":"2/1 หมู่ที่ 12 ถนน จรดวิถีถ่อง ตำบล บ้านกล้วย อำเภอ เมืองสุโขทัย สุโขทัย 64000 ไทย","coordinates":{"lat":17.0108475,"lng":99.7960459},"province":"สุโขทัย","PROV_CODE":"64"},"geometry":{"type":"Point","coordinates":[99.7960459,17.0108475]}},{"type":"Feature","properties":{"h_code":"10716","name":"โรงพยาบาลน่าน","address_th":"1 วรวิชัย ตำบล ในเวียง อำเภอเมืองน่าน น่าน 55000 ไทย","coordinates":{"lat":18.7943747,"lng":100.788303},"province":"น่าน","PROV_CODE":"55"},"geometry":{"type":"Point","coordinates":[100.788303,18.7943747]}},{"type":"Feature","properties":{"h_code":"10721","name":"โรงพยาบาลกำแพงเพชร","address_th":"428 ราชดำเนิน 1 ตำบล ในเมือง อำเภอเมืองกำแพงเพชร กำแพงเพชร 62000 ไทย","coordinates":{"lat":16.4630834,"lng":99.52841400000001},"province":"กำแพงเพชร","PROV_CODE":"62"},"geometry":{"type":"Point","coordinates":[99.52841400000001,16.4630834]}},{"type":"Feature","properties":{"h_code":"10661","name":"โรงพยาบาลสระบุรี","address_th":"18 ถนน เทศบาล 4 ตำบล ปากเพรียว อำเภอเมืองสระบุรี สระบุรี 18000 ไทย","coordinates":{"lat":14.5341609,"lng":100.9157958},"province":"สระบุรี","PROV_CODE":"19"},"geometry":{"type":"Point","coordinates":[100.9157958,14.5341609]}},{"type":"Feature","properties":{"h_code":"10701","name":"โรงพยาบาลยโสธร","address_th":"ตำบล ตาดทอง อำเภอเมืองยโสธร ยโสธร 35000 ไทย","coordinates":{"lat":15.7812822,"lng":104.1615272},"province":"ยโสธร","PROV_CODE":"35"},"geometry":{"type":"Point","coordinates":[104.1615272,15.7812822]}},{"type":"Feature","properties":{"h_code":"10744","name":"โรงพยาบาลชุมพรเขตรอุดมศักดิ์","address_th":"222 ถนน พิศิษฐพยาบาล ตำบล ท่าตะเภา อำเภอเมืองชุมพร ชุมพร 86000 ไทย","coordinates":{"lat":10.4975184,"lng":99.1861941},"province":"ชุมพร","PROV_CODE":"86"},"geometry":{"type":"Point","coordinates":[99.1861941,10.4975184]}},{"type":"Feature","properties":{"h_code":"10704","name":"โรงพยาบาลหนองบัวลำภู","address_th":"199 หมู่ 13 ถนน วศวงศ์ ตำบล หนองบัว อำเภอเมืองหนองบัวลำภู หนองบัวลำภู 39000 ไทย","coordinates":{"lat":17.1988785,"lng":102.4573085},"province":"หนองบัวลำภู","PROV_CODE":"39"},"geometry":{"type":"Point","coordinates":[102.4573085,17.1988785]}},{"type":"Feature","properties":{"h_code":"10726","name":"โรงพยาบาลพิจิตร","address_th":"136 ตำบล ในเมือง อำเภอ เมืองพิจิตร พิจิตร 66000 ไทย","coordinates":{"lat":16.4350085,"lng":100.3448289},"province":"พิจิตร","PROV_CODE":"66"},"geometry":{"type":"Point","coordinates":[100.3448289,16.4350085]}},{"type":"Feature","properties":{"h_code":"13814","name":"โรงพยาบาลศิริราช","address_th":"2 ถนน วังหลัง แขวงศิริราช เขตบางกอกน้อย กรุงเทพมหานคร 10700 ไทย","coordinates":{"lat":13.7595933,"lng":100.4859321},"province":"กรุงเทพมหานคร","PROV_CODE":"10"},"geometry":{"type":"Point","coordinates":[100.4859321,13.7595933]}},{"type":"Feature","properties":{"h_code":"10714","name":"โรงพยาบาลลำพูน","address_th":"177 หมู่ที่ 11 ถนน จามเทวี ตำบล ต้นธง อำเภอเมืองลำพูน ลำพูน 51000 ไทย","coordinates":{"lat":18.5825621,"lng":98.9946476},"province":"ลำพูน","PROV_CODE":"51"},"geometry":{"type":"Point","coordinates":[98.9946476,18.5825621]}},{"type":"Feature","properties":{"h_code":"10766","name":"โรงพยาบาลลำลูกกา","address_th":"46 หมู่ 9 ตำบล ลำไทร อำเภอลำลูกกา ปทุมธานี 12150 ไทย","coordinates":{"lat":13.9568604,"lng":100.8576572},"province":"ปทุมธานี","PROV_CODE":"13"},"geometry":{"type":"Point","coordinates":[100.8576572,13.9568604]}},{"type":"Feature","properties":{"h_code":"10705","name":"โรงพยาบาลเลย","address_th":"32/1 ซอย มะลิวรรณ ตำบลกุดป่อง อำเภอเมืองเลย เลย 42000 ไทย","coordinates":{"lat":17.487661,"lng":101.7226133},"province":"เลย","PROV_CODE":"42"},"geometry":{"type":"Point","coordinates":[101.7226133,17.487661]}},{"type":"Feature","properties":{"h_code":"10684","name":"โรงพยาบาลยะลา","address_th":"152 ถ. สิโรรส สะเตง อำเภอเมืองยะลา ยะลา 95000 ไทย","coordinates":{"lat":6.5476549,"lng":101.2765045},"province":"ยะลา","PROV_CODE":"95"},"geometry":{"type":"Point","coordinates":[101.2765045,6.5476549]}},{"type":"Feature","properties":{"h_code":"10683","name":"โรงพยาบาลตรัง","address_th":"69 ถนน ควนหาญ ตำบล ทับเที่ยง อำเภอเมืองตรัง ตรัง 92000 ไทย","coordinates":{"lat":7.572164300000001,"lng":99.61926419999999},"province":"ตรัง","PROV_CODE":"92"},"geometry":{"type":"Point","coordinates":[99.61926419999999,7.572164300000001]}},{"type":"Feature","properties":{"h_code":"10715","name":"โรงพยาบาลแพร่","address_th":"144 ถนน ช่อแฮ ตำบล ในเวียง อำเภอเมืองแพร่ แพร่ 54000 ไทย","coordinates":{"lat":18.1339637,"lng":100.1537469},"province":"แพร่","PROV_CODE":"54"},"geometry":{"type":"Point","coordinates":[100.1537469,18.1339637]}},{"type":"Feature","properties":{"h_code":"10719","name":"โรงพยาบาลศรีสังวาลย์","address_th":"ตำบล ปางหมู อำเภอเมืองแม่ฮ่องสอน แม่ฮ่องสอน 58000 ไทย","coordinates":{"lat":19.2996955,"lng":97.97188589999999},"province":"แม่ฮ่องสอน","PROV_CODE":"58"},"geometry":{"type":"Point","coordinates":[97.97188589999999,19.2996955]}},{"type":"Feature","properties":{"h_code":"10673","name":"โรงพยาบาลอุตรดิตถ์","address_th":"38 ซอย เจษฎาบดินทร์ 1 ตำบล ท่าอิฐ อำเภอเมืองอุตรดิตถ์ อุตรดิตถ์ 53000 ไทย","coordinates":{"lat":17.6191351,"lng":100.0869882},"province":"อุตรดิตถ์","PROV_CODE":"53"},"geometry":{"type":"Point","coordinates":[100.0869882,17.6191351]}},{"type":"Feature","properties":{"h_code":"11040","name":"โรงพยาบาลบึงกาฬ","address_th":"255, ตำบล วิศิษฐ์ อำเภอเมืองบึงกาฬ บึงกาฬ 38000 ไทย","coordinates":{"lat":18.3630269,"lng":103.6521965},"province":"บึงกาฬ","PROV_CODE":"38"},"geometry":{"type":"Point","coordinates":[103.6521965,18.3630269]}},{"type":"Feature","properties":{"h_code":"10698","name":"โรงพยาบาลนครนายก","address_th":"1, 100 ถนน สุวรรณศร ตำบล บ้านใหญ่ อำเภอเมืองนครนายก นครนายก 26000 ไทย","coordinates":{"lat":14.2080302,"lng":101.2129337},"province":"นครนายก","PROV_CODE":"26"},"geometry":{"type":"Point","coordinates":[101.2129337,14.2080302]}},{"type":"Feature","properties":{"h_code":"13756","name":"โรงพยาบาลจุฬาลงกรณ์สภากาชาดไทย","address_th":"13 ถนนพระรามที่ ๔ แขวง ปทุมวัน เขตปทุมวัน กรุงเทพมหานคร 10330 ไทย","coordinates":{"lat":13.7323209,"lng":100.5368348},"province":"กรุงเทพมหานคร","PROV_CODE":"10"},"geometry":{"type":"Point","coordinates":[100.5368348,13.7323209]}},{"type":"Feature","properties":{"h_code":"10819","name":"โรงพยาบาลบางละมุง","address_th":"669 ต.นาเกลือ, อำเภอบางละมุง ชลบุรี 20150 ไทย","coordinates":{"lat":12.9667191,"lng":100.9060874},"province":"ชลบุรี","PROV_CODE":"20"},"geometry":{"type":"Point","coordinates":[100.9060874,12.9667191]}},{"type":"Feature","properties":{"h_code":"10703","name":"โรงพยาบาลอำนาจเจริญ","address_th":"291 หมู่ 6 ถ. อรุณประเสริฐ ตำบล บุ่ง อำเภอเมืองอำนาจเจริญ อำนาจเจริญ 37000 ไทย","coordinates":{"lat":15.863905,"lng":104.6238505},"province":"อำนาจเจริญ","PROV_CODE":"37"},"geometry":{"type":"Point","coordinates":[104.6238505,15.863905]}},{"type":"Feature","properties":{"h_code":"10694","name":"โรงพยาบาลชัยนาทนเรนทร","address_th":"199 5 ถ. พหลโยธิน ตำบล บ้านกล้วย อำเภอเมืองชัยนาท ชัยนาท 17000 ไทย","coordinates":{"lat":15.1917249,"lng":100.1275927},"province":"ชัยนาท","PROV_CODE":"18"},"geometry":{"type":"Point","coordinates":[100.1275927,15.1917249]}},{"type":"Feature","properties":{"h_code":"41436","name":"โรงพยาบาลฉลอง","address_th":"หมู่ที่ 8 99 ตำบล ฉลอง อำเภอเมืองภูเก็ต ภูเก็ต 83000 ไทย","coordinates":{"lat":7.824074100000001,"lng":98.3411356},"province":"ภูเก็ต","PROV_CODE":"83"},"geometry":{"type":"Point","coordinates":[98.3411356,7.824074100000001]}},{"type":"Feature","properties":{"h_code":"10696","name":"โรงพยาบาลตราด","address_th":"108 ถ. สุขุมวิท ตำบล วังกระแจะ อำเภอเมืองตราด ตราด 23000 ไทย","coordinates":{"lat":12.248056,"lng":102.5116209},"province":"ตราด","PROV_CODE":"23"},"geometry":{"type":"Point","coordinates":[102.5116209,12.248056]}},{"type":"Feature","properties":{"h_code":"10689","name":"โรงพยาบาลอ่างทอง","address_th":"3 เทศบาล 6 ถนนเทศบาล 10 ตำบล บางแก้ว อำเภอเมืองอ่างทอง อ่างทอง 14000 ไทย","coordinates":{"lat":14.584759,"lng":100.4521518},"province":"อ่างทอง","PROV_CODE":"15"},"geometry":{"type":"Point","coordinates":[100.4521518,14.584759]}},{"type":"Feature","properties":{"h_code":"10665","name":"โรงพยาบาลเจ้าพระยาอภัยภูเบศร","address_th":"หมู่ที่ 12 32/7 ปราจีนอนุสรณ์ ตำบล ท่างาม อำเภอเมืองปราจีนบุรี ปราจีนบุรี 25000 ไทย","coordinates":{"lat":14.0543455,"lng":101.3957653},"province":"ปราจีนบุรี","PROV_CODE":"25"},"geometry":{"type":"Point","coordinates":[101.3957653,14.0543455]}},{"type":"Feature","properties":{"h_code":"11535","name":"คณะแพทย์ศาสตร์วชิรพยาบาล มหาวิทยาลัยกรุงเทพมหานคร","address_th":"681 ถนน สามเสน แขวง วชิรพยาบาล เขตดุสิต กรุงเทพมหานคร 10300 ไทย","coordinates":{"lat":13.7803039,"lng":100.5088272},"province":"กรุงเทพมหานคร","PROV_CODE":"10"},"geometry":{"type":"Point","coordinates":[100.5088272,13.7803039]}},{"type":"Feature","properties":{"h_code":"11481","name":"โรงพยาบาลพระมงกุฎเกล้า","address_th":"315 ถนน ราชวิถี แขวง ทุ่งพญาไท เขตราชเทวี กรุงเทพมหานคร 10400 ไทย","coordinates":{"lat":13.7673969,"lng":100.5341754},"province":"กรุงเทพมหานคร","PROV_CODE":"10"},"geometry":{"type":"Point","coordinates":[100.5341754,13.7673969]}},{"type":"Feature","properties":{"h_code":"11304","name":"โรงพยาบาลกระทุ่มแบน","address_th":"450/4 ถนน เทศบาล 4 ตำบล ตลาดกระทุ่มแบน อำเภอกระทุ่มแบน สมุทรสาคร 74110 ไทย","coordinates":{"lat":13.654412,"lng":100.255064},"province":"สมุทรสาคร","PROV_CODE":"74"},"geometry":{"type":"Point","coordinates":[100.255064,13.654412]}},{"type":"Feature","properties":{"h_code":"13781","name":"โรงพยาบาลรามาธิบดี มหาวิทยาลัยมหิดล","address_th":"270 ถนน พระรามที่ ๖ แขวง ทุ่งพญาไท เขตราชเทวี กรุงเทพมหานคร 10400 ไทย","coordinates":{"lat":13.7672161,"lng":100.5261147},"province":"กรุงเทพมหานคร","PROV_CODE":"10"},"geometry":{"type":"Point","coordinates":[100.5261147,13.7672161]}},{"type":"Feature","properties":{"h_code":"00019","name":"สำนักงานสาธารณสุขจังหวัดบุรีรัมย์","address_th":"261 ถนน จิระ ตำบล ในเมือง อำเภอเมืองบุรีรัมย์ บุรีรัมย์ 31000 ไทย","coordinates":{"lat":14.994411,"lng":103.1096607},"province":"บุรีรัมย์","PROV_CODE":"31"},"geometry":{"type":"Point","coordinates":[103.1096607,14.994411]}},{"type":"Feature","properties":{"h_code":"12252","name":"สถาบันราชประชาสมาสัย","address_th":"ตำบลสำโรงใต้ อำเภอพระประแดง จ.สมุทรปราการ, 10130 ไทย","coordinates":{"lat":13.6526398,"lng":100.5376039},"province":"สมุทรปราการ","PROV_CODE":"11"},"geometry":{"type":"Point","coordinates":[100.5376039,13.6526398]}},{"type":"Feature","properties":{"h_code":"14641","name":"โรงพยาบาลราชพิพัฒน์","address_th":"18 ถนน พุทธมณฑลสาย ๓ แขวง บางไผ่ เขตบางแค กรุงเทพมหานคร 10160 ไทย","coordinates":{"lat":13.7309561,"lng":100.3667948},"province":"กรุงเทพมหานคร","PROV_CODE":"10"},"geometry":{"type":"Point","coordinates":[100.3667948,13.7309561]}},{"type":"Feature","properties":{"h_code":"10693","name":"โรงพยาบาลอินทร์บุรี","address_th":"37/7 ซอย หมู่ 1 ตำบล ทับยา อำเภออินทร์บุรี สิงห์บุรี 16110 ไทย","coordinates":{"lat":14.9881801,"lng":100.3342251},"province":"สิงห์บุรี","PROV_CODE":"17"},"geometry":{"type":"Point","coordinates":[100.3342251,14.9881801]}},{"type":"Feature","properties":{"h_code":"11305","name":"โรงพยาบาลบ้านแพ้ว","address_th":"198 ม.1 ถ.พระประโทน ตำบล บ้านแพ้ว อำเภอบ้านแพ้ว สมุทรสาคร 74120 ไทย","coordinates":{"lat":13.5904296,"lng":100.1047494},"province":"สมุทรสาคร","PROV_CODE":"74"},"geometry":{"type":"Point","coordinates":[100.1047494,13.5904296]}},{"type":"Feature","properties":{"h_code":"10670","name":"โรงพยาบาลขอนแก่น","address_th":"54 ถ. ศรีจันทร์ ตำบลในเมือง อำเภอเมืองขอนแก่น ขอนแก่น 40000 ไทย","coordinates":{"lat":16.4291172,"lng":102.8491256},"province":"ขอนแก่น","PROV_CODE":"40"},"geometry":{"type":"Point","coordinates":[102.8491256,16.4291172]}},{"type":"Feature","properties":{"h_code":"10735","name":"โรงพยาบาลสมเด็จพระพุทธเลิศหล้า","address_th":"ตำบล แม่กลอง อำเภอเมืองสมุทรสงคราม สมุทรสงคราม 75000 ไทย","coordinates":{"lat":13.4062425,"lng":99.9980347},"province":"สมุทรสงคราม","PROV_CODE":"75"},"geometry":{"type":"Point","coordinates":[99.9980347,13.4062425]}},{"type":"Feature","properties":{"h_code":"11333","name":"โรงพยาบาลปากพนัง","address_th":"212 ถนนชายน้ำ ตำบล ปากพนัง อำเภอ ปากพนัง นครศรีธรรมราช 80140 ไทย","coordinates":{"lat":8.358529899999999,"lng":100.1976065},"province":"นครศรีธรรมราช","PROV_CODE":"80"},"geometry":{"type":"Point","coordinates":[100.1976065,8.358529899999999]}},{"type":"Feature","properties":{"h_code":"14574","name":"โรงพยาบาลพญาไท 3","address_th":"111 ถ. เพชรเกษม แขวง ปากคลองภาษีเจริญ เขตภาษีเจริญ กรุงเทพมหานคร 10160 ไทย","coordinates":{"lat":13.722973,"lng":100.4640754},"province":"กรุงเทพมหานคร","PROV_CODE":"10"},"geometry":{"type":"Point","coordinates":[100.4640754,13.722973]}},{"type":"Feature","properties":{"h_code":"10823","name":"โรงพยาบาลแหลมฉบัง","address_th":"188/36 หมู่ที่ 6 ถ. สุขุมวิท ตำบล ทุ่งสุขลา อำเภอศรีราชา ชลบุรี 20230 ไทย","coordinates":{"lat":13.1160314,"lng":100.9189939},"province":"ชลบุรี","PROV_CODE":"20"},"geometry":{"type":"Point","coordinates":[100.9189939,13.1160314]}},{"type":"Feature","properties":{"h_code":"11472","name":"โรงพยาบาลราชวิถี","address_th":"2 ถนน พญาไท แขวง ทุ่งพญาไท เขตราชเทวี กรุงเทพมหานคร 10400 ไทย","coordinates":{"lat":13.7646491,"lng":100.5358415},"province":"กรุงเทพมหานคร","PROV_CODE":"10"},"geometry":{"type":"Point","coordinates":[100.5358415,13.7646491]}},{"type":"Feature","properties":{"h_code":"11376","name":"โรงพยาบาลท่าแซะ","address_th":"2 ถ. เพชรเกษม ตำบล ทรัพย์อนันต์ อำเภอท่าแซะ ชุมพร 86140 ไทย","coordinates":{"lat":10.6885738,"lng":99.2047781},"province":"ชุมพร","PROV_CODE":"86"},"geometry":{"type":"Point","coordinates":[99.2047781,10.6885738]}},{"type":"Feature","properties":{"h_code":"11632","name":"โรงพยาบาลปิยะเวท","address_th":"998 ถนน ริมคลองสามเสน แขวง บางกะปิ เขตห้วยขวาง กรุงเทพมหานคร 10310 ไทย","coordinates":{"lat":13.7533822,"lng":100.5800847},"province":"กรุงเทพมหานคร","PROV_CODE":"10"},"geometry":{"type":"Point","coordinates":[100.5800847,13.7533822]}},{"type":"Feature","properties":{"h_code":"24748","name":"โรงพยาบาลศิริราช ปิยมหาราชการุณย์","address_th":"2 ถนน วังหลัง แขวงศิริราช เขตบางกอกน้อย กรุงเทพมหานคร 10700 ไทย","coordinates":{"lat":13.7595933,"lng":100.4859321},"province":"กรุงเทพมหานคร","PROV_CODE":"10"},"geometry":{"type":"Point","coordinates":[100.4859321,13.7595933]}},{"type":"Feature","properties":{"h_code":"21339","name":"โรงพยาบาลบางปะกอก 9 อินเตอร์เนชั่นแนล","address_th":"362 ถ. พระราม ๒ แขวง บางมด เขตจอมทอง กรุงเทพมหานคร 10150 ไทย","coordinates":{"lat":13.6818817,"lng":100.4745221},"province":"กรุงเทพมหานคร","PROV_CODE":"10"},"geometry":{"type":"Point","coordinates":[100.4745221,13.6818817]}},{"type":"Feature","properties":{"h_code":"11722","name":"โรงพยาบาลมงกุฏวัฒนะ","address_th":"34, 40 ถ. แจ้งวัฒนะ แขวง ทุ่งสองห้อง เขต หลักสี่ กรุงเทพมหานคร 10210 ไทย","coordinates":{"lat":13.8939984,"lng":100.5616275},"province":"กรุงเทพมหานคร","PROV_CODE":"10"},"geometry":{"type":"Point","coordinates":[100.5616275,13.8939984]}},{"type":"Feature","properties":{"h_code":"10723","name":"โรงพยาบาลแม่สอด","address_th":"175/16 ถนนศรีพานิช ตำบล แม่สอด อำเภอแม่สอด ตาก 63110 ไทย","coordinates":{"lat":16.709782,"lng":98.57233199999999},"province":"ตาก","PROV_CODE":"63"},"geometry":{"type":"Point","coordinates":[98.57233199999999,16.709782]}},{"type":"Feature","properties":{"h_code":"11621","name":"โรงพยาบาลบางไผ่","address_th":"62 ถ. เพชรเกษม แขวง ปากคลองภาษีเจริญ เขตภาษีเจริญ กรุงเทพมหานคร 10160 ไทย","coordinates":{"lat":13.7250378,"lng":100.4649291},"province":"กรุงเทพมหานคร","PROV_CODE":"10"},"geometry":{"type":"Point","coordinates":[100.4649291,13.7250378]}},{"type":"Feature","properties":{"h_code":"11647","name":"โรงพยาบาลทั่วไปขนาดใหญ่ พีเอ็มจี","address_th":"280 ถนน พระรามสอง แขวง แสมดำ เขตบางขุนเทียน กรุงเทพมหานคร 10150 ไทย","coordinates":{"lat":13.6516984,"lng":100.4220017},"province":"กรุงเทพมหานคร","PROV_CODE":"10"},"geometry":{"type":"Point","coordinates":[100.4220017,13.6516984]}},{"type":"Feature","properties":{"h_code":"25015","name":"โรงพยาบาลทั่วไปขนาดใหญ่มิตรประชา","address_th":"675 ถ. เพชรเกษม แขวง บางหว้า เขตภาษีเจริญ กรุงเทพมหานคร 10160 ไทย","coordinates":{"lat":13.7120791,"lng":100.4318653},"province":"กรุงเทพมหานคร","PROV_CODE":"10"},"geometry":{"type":"Point","coordinates":[100.4318653,13.7120791]}},{"type":"Feature","properties":{"h_code":"11240","name":"โรงพยาบาลแม่ระมาด","address_th":"251 ม .4 ตำบล แม่ระมาด อำเภอแม่ระมาด ตาก 63140 ไทย","coordinates":{"lat":16.990945,"lng":98.52655779999999},"province":"ตาก","PROV_CODE":"63"},"geometry":{"type":"Point","coordinates":[98.52655779999999,16.990945]}},{"type":"Feature","properties":{"h_code":"11537","name":"โรงพยาบาลกลาง","address_th":"514 ถ. หลวง แขวง ป้อมปราบ เขตป้อมปราบศัตรูพ่าย กรุงเทพมหานคร 10100 ไทย","coordinates":{"lat":13.7465459,"lng":100.5092822},"province":"กรุงเทพมหานคร","PROV_CODE":"10"},"geometry":{"type":"Point","coordinates":[100.5092822,13.7465459]}},{"type":"Feature","properties":{"h_code":"12244","name":"สถาบันจิตเวชศาสตร์สมเด็จเจ้าพระยา","address_th":"112 ถนน สมเด็จเจ้าพระยา แขวง คลองสาน เขตคลองสาน กรุงเทพมหานคร 10600 ไทย","coordinates":{"lat":13.7308579,"lng":100.5047033},"province":"กรุงเทพมหานคร","PROV_CODE":"10"},"geometry":{"type":"Point","coordinates":[100.5047033,13.7308579]}},{"type":"Feature","properties":{"h_code":"11699","name":"โรงพยาบาลบำรุงราษฎร์","address_th":"33 ซอย สุขุมวิท 3 แขวง คลองเตยเหนือ เขตวัฒนา กรุงเทพมหานคร 10110 ไทย","coordinates":{"lat":13.746316,"lng":100.5522992},"province":"กรุงเทพมหานคร","PROV_CODE":"10"},"geometry":{"type":"Point","coordinates":[100.5522992,13.746316]}},{"type":"Feature","properties":{"h_code":"15049","name":"โรงพยาบาลสิรินธร","address_th":"ซอย โรงพยาบาลสิรินธร แขวง ประเวศ เขต ประเวศ กรุงเทพมหานคร 10250 ประเทศไทย","coordinates":{"lat":13.7200806,"lng":100.7071465},"province":"กรุงเทพมหานคร","PROV_CODE":"10"},"geometry":{"type":"Point","coordinates":[100.7071465,13.7200806]}},{"type":"Feature","properties":{"h_code":"11661","name":"โรงพยาบาลวิชัยเวช อินเตอร์เนชั่นแนล หนองแขม","address_th":"456 456/8 ถ. เพชรเกษม แขวง หนองค้างพลู เขตหนองแขม กรุงเทพมหานคร 10160 ไทย","coordinates":{"lat":13.707466,"lng":100.3606612},"province":"กรุงเทพมหานคร","PROV_CODE":"10"},"geometry":{"type":"Point","coordinates":[100.3606612,13.707466]}},{"type":"Feature","properties":{"h_code":"11648","name":"โรงพยาบาลนครธน","address_th":"1 ถ. พระราม 2 แขวง แสมดำ เขตบางขุนเทียน กรุงเทพมหานคร 10150 ไทย","coordinates":{"lat":13.6606777,"lng":100.4342061},"province":"กรุงเทพมหานคร","PROV_CODE":"10"},"geometry":{"type":"Point","coordinates":[100.4342061,13.6606777]}},{"type":"Feature","properties":{"h_code":"12257","name":"สถาบันบำราศนราดูร","address_th":"หมู่ที่ 4 ตําบล 38, ถ. ติวานนท์ อำเภอเมืองนนทบุรี นนทบุรี 11000 ไทย","coordinates":{"lat":13.8537638,"lng":100.5227505},"province":"นนทบุรี","PROV_CODE":"12"},"geometry":{"type":"Point","coordinates":[100.5227505,13.8537638]}},{"type":"Feature","properties":{"h_code":"11656","name":"โรงพยาบาลเกษมราษฎร์ บางแค","address_th":"586, 588 ถ. เพชรเกษม แขวง บางแคเหนือ เขตบางแค กรุงเทพมหานคร 10160 ไทย","coordinates":{"lat":13.710611,"lng":100.3986326},"province":"กรุงเทพมหานคร","PROV_CODE":"10"},"geometry":{"type":"Point","coordinates":[100.3986326,13.710611]}},{"type":"Feature","properties":{"h_code":"15147","name":"โรงพยาบาลบางปะกอก 8 โรงพยาบาลทั่วไปขนาดใหญ่","address_th":"1055 ถ. เอกชัย แขวง บางบอน เขตบางบอน กรุงเทพมหานคร 10150 ไทย","coordinates":{"lat":13.6630359,"lng":100.4068731},"province":"กรุงเทพมหานคร","PROV_CODE":"10"},"geometry":{"type":"Point","coordinates":[100.4068731,13.6630359]}},{"type":"Feature","properties":{"h_code":"12438","name":"สถาบันสุขภาพเด็กแห่งชาติมหาราชินี","address_th":"ถนน ราชวิถี แขวง ทุ่งพญาไท เขตราชเทวี กรุงเทพมหานคร 10400 ไทย","coordinates":{"lat":13.7658293,"lng":100.5352354},"province":"กรุงเทพมหานคร","PROV_CODE":"10"},"geometry":{"type":"Point","coordinates":[100.5352354,13.7658293]}},{"type":"Feature","properties":{"h_code":"15260","name":"โรงพยาบาลสินแพทย์","address_th":"ซอย รามอินทรา 52/1 แขวง รามอินทรา เขตคันนายาว กรุงเทพมหานคร 10230 ประเทศไทย","coordinates":{"lat":13.8339593,"lng":100.6638934},"province":"กรุงเทพมหานคร","PROV_CODE":"10"},"geometry":{"type":"Point","coordinates":[100.6638934,13.8339593]}},{"type":"Feature","properties":{"h_code":"14577","name":"โรงพยาบาลวิภาราม","address_th":"2677 ถนนพัฒนาการ แขวง พัฒนาการ แขวงสวนหลวง กรุงเทพมหานคร 10250 ไทย","coordinates":{"lat":13.734706,"lng":100.6455266},"province":"กรุงเทพมหานคร","PROV_CODE":"10"},"geometry":{"type":"Point","coordinates":[100.6455266,13.734706]}},{"type":"Feature","properties":{"h_code":"11691","name":"โรงพยาบาลวิภาวดี","address_th":"51 3 ถนน งามวงศ์วาน แขวง ลาดยาว เขตจตุจักร กรุงเทพมหานคร 10900 ไทย","coordinates":{"lat":13.8462543,"lng":100.5621239},"province":"กรุงเทพมหานคร","PROV_CODE":"10"},"geometry":{"type":"Point","coordinates":[100.5621239,13.8462543]}},{"type":"Feature","properties":{"h_code":"21809","name":"กรมแพทย์ทหารเรือ","address_th":"504 ถนน สมเด็จพระเจ้าตากสิน แขวง บุคคโล เขตธนบุรี กรุงเทพมหานคร 10600 ไทย","coordinates":{"lat":13.7094357,"lng":100.4858315},"province":"กรุงเทพมหานคร","PROV_CODE":"10"},"geometry":{"type":"Point","coordinates":[100.4858315,13.7094357]}},{"type":"Feature","properties":{"h_code":"10740","name":"โรงพยาบาลตะกั่วป่า","address_th":"39/2 ถ. เพชรเกษม ตำบล บางนายสี อำเภอตะกั่วป่า พังงา 82110 ไทย","coordinates":{"lat":8.8637649,"lng":98.3344924},"province":"พังงา","PROV_CODE":"82"},"geometry":{"type":"Point","coordinates":[98.3344924,8.8637649]}},{"type":"Feature","properties":{"h_code":"12460","name":"ศูนย์บริการโลหิตแห่งชาติ สภากาชาด","address_th":"1871 ถ. อังรีดูนังต์ แขวง ปทุมวัน เขตปทุมวัน กรุงเทพมหานคร 10330 ไทย","coordinates":{"lat":13.7337284,"lng":100.5326309},"province":"กรุงเทพมหานคร","PROV_CODE":"10"},"geometry":{"type":"Point","coordinates":[100.5326309,13.7337284]}},{"type":"Feature","properties":{"h_code":"11543","name":"โรงพยาบาลมิชชั่น","address_th":"430 ถนน พิษณุโลก แขวง สี่แยกมหานาค เขตดุสิต กรุงเทพมหานคร 10300 ไทย","coordinates":{"lat":13.7574827,"lng":100.5190735},"province":"กรุงเทพมหานคร","PROV_CODE":"10"},"geometry":{"type":"Point","coordinates":[100.5190735,13.7574827]}},{"type":"Feature","properties":{"h_code":"11477","name":"โรงพยาบาลทหารผ่านศึก","address_th":"123 ถนน วิภาวดีรังสิต แขวง สามเสนใน เขตพญาไท กรุงเทพมหานคร 10400 ไทย","coordinates":{"lat":13.7721515,"lng":100.5518272},"province":"กรุงเทพมหานคร","PROV_CODE":"10"},"geometry":{"type":"Point","coordinates":[100.5518272,13.7721515]}},{"type":"Feature","properties":{"h_code":"11482","name":"โรงพยาบาลภูมิพลอดุลยเดช","address_th":"171 ถ. พหลโยธิน แขวง สายไหม เขตสายไหม กรุงเทพมหานคร 10220 ไทย","coordinates":{"lat":13.9091142,"lng":100.6177364},"province":"กรุงเทพมหานคร","PROV_CODE":"10"},"geometry":{"type":"Point","coordinates":[100.6177364,13.9091142]}},{"type":"Feature","properties":{"h_code":"10692","name":"โรงพยาบาลสิงห์บุรี","address_th":"3 917 ถนน ขุนสรรค์ ตำบล บางพุทรา อำเภอเมืองสิงห์บุรี สิงห์บุรี 16000 ไทย","coordinates":{"lat":14.8967085,"lng":100.3976201},"province":"สิงห์บุรี","PROV_CODE":"17"},"geometry":{"type":"Point","coordinates":[100.3976201,14.8967085]}},{"type":"Feature","properties":{"h_code":"11546","name":"โรงพยาบาลบี เอ็น เอช","address_th":"9/1 ถนน คอนแวนต์ แขวง สีลม เขตบางรัก กรุงเทพมหานคร 10500 ไทย","coordinates":{"lat":13.724859,"lng":100.5350217},"province":"กรุงเทพมหานคร","PROV_CODE":"10"},"geometry":{"type":"Point","coordinates":[100.5350217,13.724859]}},{"type":"Feature","properties":{"h_code":"11600","name":"โรงพยาบาลเซนต์หลุยส์","address_th":"27 ถ. สาทรใต้ แขวง ยานนาวา เขต สาทร กรุงเทพมหานคร 10120 ไทย","coordinates":{"lat":13.7191124,"lng":100.5252044},"province":"กรุงเทพมหานคร","PROV_CODE":"10"},"geometry":{"type":"Point","coordinates":[100.5252044,13.7191124]}},{"type":"Feature","properties":{"h_code":"11630","name":"โรงพยาบาลกรุงเทพ","address_th":"2 ซ. เพชรบุรี 47 แยก 10 แขวง บางกะปิ เขตห้วยขวาง กรุงเทพมหานคร 10310 ไทย","coordinates":{"lat":13.7487515,"lng":100.5832257},"province":"กรุงเทพมหานคร","PROV_CODE":"10"},"geometry":{"type":"Point","coordinates":[100.5832257,13.7487515]}},{"type":"Feature","properties":{"h_code":"11591","name":"โรงพยาบาลสุขุมวิท","address_th":"1411 ถ. สุขุมวิท แขวง พระโขนงเหนือ เขตวัฒนา กรุงเทพมหานคร 10110 ไทย","coordinates":{"lat":13.7188065,"lng":100.5874746},"province":"กรุงเทพมหานคร","PROV_CODE":"10"},"geometry":{"type":"Point","coordinates":[100.5874746,13.7188065]}},{"type":"Feature","properties":{"h_code":"11730","name":"โรงพยาบาลไทยนครินทร์","address_th":"345 ถ. เทพรัตน แขวง บางนา เขตบางนา กรุงเทพมหานคร 10260 ไทย","coordinates":{"lat":13.6681477,"lng":100.6385639},"province":"กรุงเทพมหานคร","PROV_CODE":"10"},"geometry":{"type":"Point","coordinates":[100.6385639,13.6681477]}},{"type":"Feature","properties":{"h_code":"25060","name":"โรงพยาบาลผู้สูงอายุบางขุนเทียน","address_th":"1075 1 ถนนบางขุนเทียน-ชายทะเล แขวง ท่าข้าม เขตบางขุนเทียน กรุงเทพมหานคร 10150 ไทย","coordinates":{"lat":13.572607,"lng":100.4228872},"province":"กรุงเทพมหานคร","PROV_CODE":"10"},"geometry":{"type":"Point","coordinates":[100.4228872,13.572607]}},{"type":"Feature","properties":{"h_code":"11687","name":"โรงพยาบาลเกษมราษฎร์ประชาชื่น","address_th":"940 ถนน ประชาชื่น แขวง วงศ์สว่าง เขตบางซื่อ กรุงเทพมหานคร 10220 ไทย","coordinates":{"lat":13.8316938,"lng":100.5389974},"province":"กรุงเทพมหานคร","PROV_CODE":"10"},"geometry":{"type":"Point","coordinates":[100.5389974,13.8316938]}},{"type":"Feature","properties":{"h_code":"11628","name":"โรงพยาบาลพระราม 9","address_th":"ซอย โรงพยาบาลพระราม 9 เขตห้วยขวาง กรุงเทพมหานคร 10310 ประเทศไทย","coordinates":{"lat":13.7537961,"lng":100.5705369},"province":"กรุงเทพมหานคร","PROV_CODE":"10"},"geometry":{"type":"Point","coordinates":[100.5705369,13.7537961]}},{"type":"Feature","properties":{"h_code":"14189","name":"สถาบันป้องกันควบคุมโรคเขตเมือง","address_th":"24/56 ถ. พหลโยธิน แขวง อนุสาวรีย์ เขตบางเขน กรุงเทพมหานคร 10220 ไทย","coordinates":{"lat":13.8725574,"lng":100.5956363},"province":"กรุงเทพมหานคร","PROV_CODE":"10"},"geometry":{"type":"Point","coordinates":[100.5956363,13.8725574]}},{"type":"Feature","properties":{"h_code":"10695","name":"โรงพยาบาลพระพุทธบาท","address_th":"ตำบล ธารเกษม อำเภอพระพุทธบาท สระบุรี 18120 ไทย","coordinates":{"lat":14.7243162,"lng":100.801937},"province":"สระบุรี","PROV_CODE":"19"},"geometry":{"type":"Point","coordinates":[100.801937,14.7243162]}},{"type":"Feature","properties":{"h_code":"11558","name":"โรงพยาบาลซีจีเอชโรงพยาบาลทั่วไปขนาดใหญ่","address_th":"290 ถ. พหลโยธิน แขวง อนุสาวรีย์ เขตบางเขน กรุงเทพมหานคร 10220 ไทย","coordinates":{"lat":13.8890128,"lng":100.6068165},"province":"กรุงเทพมหานคร","PROV_CODE":"10"},"geometry":{"type":"Point","coordinates":[100.6068165,13.8890128]}},{"type":"Feature","properties":{"h_code":"11708","name":"โรงพยาบาลบางมดโรงพยาบาลทั่วไปขนาดใหญ่","address_th":"747 ถ. พระราม ๒ แขวง บางมด เขตจอมทอง กรุงเทพมหานคร 10150 ไทย","coordinates":{"lat":13.6717765,"lng":100.45648},"province":"กรุงเทพมหานคร","PROV_CODE":"10"},"geometry":{"type":"Point","coordinates":[100.45648,13.6717765]}},{"type":"Feature","properties":{"h_code":"22737","name":"โรงพยาบาลจุฬาภรณ์","address_th":"100 ซอย วิภาวดีรังสิต แขวง ทุ่งสองห้อง เขต หลักสี่ กรุงเทพมหานคร 10210 ไทย","coordinates":{"lat":13.8781489,"lng":100.5685177},"province":"กรุงเทพมหานคร","PROV_CODE":"10"},"geometry":{"type":"Point","coordinates":[100.5685177,13.8781489]}},{"type":"Feature","properties":{"h_code":"11471","name":"โรงพยาบาลสงฆ์","address_th":"445 ถ. ศรีอยุธยา แขวง ทุ่งพญาไท เขตราชเทวี กรุงเทพมหานคร 10400 ไทย","coordinates":{"lat":13.7617091,"lng":100.5269917},"province":"กรุงเทพมหานคร","PROV_CODE":"10"},"geometry":{"type":"Point","coordinates":[100.5269917,13.7617091]}},{"type":"Feature","properties":{"h_code":"10756","name":"โรงพยาบาลบางกรวย","address_th":"หมู่ที่ 8 44 ตำบล วัดชลอ อำเภอบางกรวย นนทบุรี 11130 ไทย","coordinates":{"lat":13.8050563,"lng":100.4722137},"province":"นนทบุรี","PROV_CODE":"12"},"geometry":{"type":"Point","coordinates":[100.4722137,13.8050563]}},{"type":"Feature","properties":{"h_code":"11260","name":"โรงพยาบาลบางมูลนาก","address_th":"2 ตำบล หอไกร อำเภอ บางมูลนาก พิจิตร 66120 ไทย","coordinates":{"lat":16.0400427,"lng":100.3517646},"province":"พิจิตร","PROV_CODE":"66"},"geometry":{"type":"Point","coordinates":[100.3517646,16.0400427]}},{"type":"Feature","properties":{"h_code":"11238","name":"โรงพยาบาลบ้านตาก","address_th":"ตำบล ตากออก อำเภอบ้านตาก ตาก 63120 ไทย","coordinates":{"lat":17.0560894,"lng":99.0723706},"province":"ตาก","PROV_CODE":"63"},"geometry":{"type":"Point","coordinates":[99.0723706,17.0560894]}},{"type":"Feature","properties":{"h_code":"11811","name":"โรงพยาบาลสมิติเวช","address_th":"ศรีนครินทร์ 6 แขวง สวนหลวง แขวงสวนหลวง กรุงเทพมหานคร 10250 ประเทศไทย","coordinates":{"lat":13.747216,"lng":100.6402484},"province":"กรุงเทพมหานคร","PROV_CODE":"10"},"geometry":{"type":"Point","coordinates":[100.6402484,13.747216]}},{"type":"Feature","properties":{"h_code":"11242","name":"โรงพยาบาลพบพระ","address_th":"245 ตำบล พบพระ อำเภอ พบพระ ตาก 63160 ไทย","coordinates":{"lat":16.4012315,"lng":98.69548139999999},"province":"ตาก","PROV_CODE":"63"},"geometry":{"type":"Point","coordinates":[98.69548139999999,16.4012315]}},{"type":"Feature","properties":{"h_code":"41901","name":"โรงพยาบาลเมดพาร์ค โรงพยาบาลทั่วไปขนาดใหญ่","address_th":"3333 ถนนพระรามที่ ๔ แขวง คลองเตย เขตคลองเตย กรุงเทพมหานคร 10110 ไทย","coordinates":{"lat":13.7217821,"lng":100.5562616},"province":"กรุงเทพมหานคร","PROV_CODE":"10"},"geometry":{"type":"Point","coordinates":[100.5562616,13.7217821]}},{"type":"Feature","properties":{"h_code":"11470","name":"โรงพยาบาลนพรัตนราชธานี","address_th":"679 ถ. รามอินทรา แขวง คันนายาว เขตคันนายาว กรุงเทพมหานคร 10230 ไทย","coordinates":{"lat":13.8174056,"lng":100.6880292},"province":"กรุงเทพมหานคร","PROV_CODE":"10"},"geometry":{"type":"Point","coordinates":[100.6880292,13.8174056]}},{"type":"Feature","properties":{"h_code":"14953","name":"สำนักงานบรรเทาทุกข์และประชานามัยพิทักษ์","address_th":"1871 ถ. อังรีดูนังต์ แขวง ปทุมวัน เขตปทุมวัน กรุงเทพมหานคร 10330 ไทย","coordinates":{"lat":13.7317926,"lng":100.5333121},"province":"กรุงเทพมหานคร","PROV_CODE":"10"},"geometry":{"type":"Point","coordinates":[100.5333121,13.7317926]}},{"type":"Feature","properties":{"h_code":"11508","name":"โรงพยาบาลค่ายกาวิละ เชียงใหม่","address_th":"ค่ายทหารกาวิละ 285 ซอย หน้าวัดเกตุ ตำบล วัดเกตุ อำเภอเมืองเชียงใหม่ เชียงใหม่ 50000 ไทย","coordinates":{"lat":18.7780238,"lng":99.01445319999999},"province":"เชียงใหม่","PROV_CODE":"50"},"geometry":{"type":"Point","coordinates":[99.01445319999999,18.7780238]}},{"type":"Feature","properties":{"h_code":"41700","name":"โรงพยาบาลทั่วไปขนาดใหญ่ สินแพทย์ ศรีนครินทร์","address_th":"19/9 ถนน เฉลิมพระเกียรติรัชกาลที่ 9 แขวง หนองบอน เขต ประเวศ กรุงเทพมหานคร 10250 ไทย","coordinates":{"lat":13.6785179,"lng":100.6483982},"province":"กรุงเทพมหานคร","PROV_CODE":"10"},"geometry":{"type":"Point","coordinates":[100.6483982,13.6785179]}},{"type":"Feature","properties":{"h_code":"11750","name":"โรงพยาบาลหัวเฉียวโรงพยาบาลทั่วไปขนาดใหญ่","address_th":"665 ถ. บำรุงเมือง แขวง คลองมหานาค เขตป้อมปราบศัตรูพ่าย กรุงเทพมหานคร 10100 ไทย","coordinates":{"lat":13.7500823,"lng":100.5154121},"province":"กรุงเทพมหานคร","PROV_CODE":"10"},"geometry":{"type":"Point","coordinates":[100.5154121,13.7500823]}},{"type":"Feature","properties":{"h_code":"11539","name":"โรงพยาบาลตากสิน","address_th":"543 ถนน สมเด็จเจ้าพระยา แขวง คลองสาน เขตคลองสาน กรุงเทพมหานคร 10600 ไทย","coordinates":{"lat":13.7304755,"lng":100.5086438},"province":"กรุงเทพมหานคร","PROV_CODE":"10"},"geometry":{"type":"Point","coordinates":[100.5086438,13.7304755]}},{"type":"Feature","properties":{"h_code":"11640","name":"โรงพยาบาลธนบุรี 2","address_th":"43/4 ถนน บรมราชชนนี แขวง ศาลาธรรมสพน์ เขตทวีวัฒนา กรุงเทพมหานคร 10170 ไทย","coordinates":{"lat":13.7828095,"lng":100.4004467},"province":"กรุงเทพมหานคร","PROV_CODE":"10"},"geometry":{"type":"Point","coordinates":[100.4004467,13.7828095]}},{"type":"Feature","properties":{"h_code":"10827","name":"โรงพยาบาลเฉลิมพระเกียรติสมเด็จพระเทพรัตนราชสุดาฯ สยามบรมราชกุมารี ระยอง","address_th":"111 ถ. สุขุมวิท ตำบล ห้วยโป่ง อำเภอเมืองระยอง ระยอง 21150 ไทย","coordinates":{"lat":12.7305694,"lng":101.1364029},"province":"ระยอง","PROV_CODE":"21"},"geometry":{"type":"Point","coordinates":[101.1364029,12.7305694]}},{"type":"Feature","properties":{"h_code":"28810","name":"โรงพยาบาล เวิลด์ เมดิคอล เซ็นเตอร์","address_th":"ซอย แจ้งวัฒนะ-ปากเกร็ด 19 ตำบล ปากเกร็ด อำเภอปากเกร็ด นนทบุรี 11120 ไทย","coordinates":{"lat":13.9050065,"lng":100.5248272},"province":"นนทบุรี","PROV_CODE":"12"},"geometry":{"type":"Point","coordinates":[100.5248272,13.9050065]}},{"type":"Feature","properties":{"h_code":"11669","name":"โรงพยาบาลราษฏร์บูรณะ","address_th":"377 ซอย สุขสวัสดิ์ 27 แขวง บางปะกอก เขตราษฎร์บูรณะ กรุงเทพมหานคร 10140 ไทย","coordinates":{"lat":13.677912,"lng":100.5028488},"province":"กรุงเทพมหานคร","PROV_CODE":"10"},"geometry":{"type":"Point","coordinates":[100.5028488,13.677912]}},{"type":"Feature","properties":{"h_code":"23781","name":"นวมินทร์ 9โรงพยาบาลทั่วไปขนาดใหญ่","address_th":"96 ถนน สีหบุรานุกิจ แขวง มีนบุรี เขตมีนบุรี กรุงเทพมหานคร 10510 ไทย","coordinates":{"lat":13.8112772,"lng":100.7239936},"province":"กรุงเทพมหานคร","PROV_CODE":"10"},"geometry":{"type":"Point","coordinates":[100.7239936,13.8112772]}},{"type":"Feature","properties":{"h_code":"11478","name":"โรงพยาบาลสมเด็จพระปิ่นเกล้า","address_th":"504 ถนน สมเด็จพระเจ้าตากสิน แขวง บุคคโล เขตธนบุรี กรุงเทพมหานคร 10600 ไทย","coordinates":{"lat":13.7099637,"lng":100.4870822},"province":"กรุงเทพมหานคร","PROV_CODE":"10"},"geometry":{"type":"Point","coordinates":[100.4870822,13.7099637]}},{"type":"Feature","properties":{"h_code":"12250","name":"สถาบันมะเร็งแห่งชาติ","address_th":"6 268/1 Rama 6 Road แขวง ทุ่งพญาไท เขตราชเทวี กรุงเทพมหานคร 10400 ไทย","coordinates":{"lat":13.7675365,"lng":100.5271512},"province":"กรุงเทพมหานคร","PROV_CODE":"10"},"geometry":{"type":"Point","coordinates":[100.5271512,13.7675365]}},{"type":"Feature","properties":{"h_code":"11706","name":"โรงพยาบาลทั่วไปขนาดเล็กบางขุนเทียน 1","address_th":"124, 74-75 ซอย จอมทอง 18 แขวง บางค้อ เขตจอมทอง กรุงเทพมหานคร 10150 ไทย","coordinates":{"lat":13.6990497,"lng":100.4699636},"province":"กรุงเทพมหานคร","PROV_CODE":"10"},"geometry":{"type":"Point","coordinates":[100.4699636,13.6990497]}},{"type":"Feature","properties":{"h_code":"11770","name":"โรงพยาบาลพริ้นซ์สุวรรณภูมิโรงพยาบาลทั่วไปขนาดใหญ่","address_th":"บางเเก้ว โรงพยาบาลพริ้นซ์ สุวรรณภูมิ เลขที่ 35/2 หมู่ 12 ทางคู่ขนาน ถนนบางนา-ตราด ตำบล บางแก้ว อำเภอบางพลี สมุทรปราการ 10540 ไทย","coordinates":{"lat":13.6569844,"lng":100.6658577},"province":"สมุทรปราการ","PROV_CODE":"11"},"geometry":{"type":"Point","coordinates":[100.6658577,13.6569844]}},{"type":"Feature","properties":{"h_code":"11560","name":"โรงพยาบาลทั่วไปขนาดใหญ่เปาโล เกษตร","address_th":"2012 5-7 ซอย พหลโยธิน 34 แขวง เสนานิคม เขตจตุจักร กรุงเทพมหานคร 10900 ไทย","coordinates":{"lat":13.8354167,"lng":100.5741868},"province":"กรุงเทพมหานคร","PROV_CODE":"10"},"geometry":{"type":"Point","coordinates":[100.5741868,13.8354167]}},{"type":"Feature","properties":{"h_code":"11479","name":"โรงพยาบาลทหารเรือกรุงเทพ","address_th":"224 ถนน ทางรถไฟสายเก่า แขวง บางนา เขตบางนา กรุงเทพมหานคร 10260 ไทย","coordinates":{"lat":13.6704843,"lng":100.5878225},"province":"กรุงเทพมหานคร","PROV_CODE":"10"},"geometry":{"type":"Point","coordinates":[100.5878225,13.6704843]}},{"type":"Feature","properties":{"h_code":"28892","name":"ศูนย์บริการสุขภาพแห่งจุฬาลงกรณ์มหาวิทยาลัย","address_th":"Floor 2 Chamchuri 9 Phayathai Road Wang Mai 10330 Pathumwan Bangkok แขวง วังใหม่ เขตปทุมวัน กรุงเทพมหานคร 10330 ไทย","coordinates":{"lat":13.7360276,"lng":100.5254198},"province":"กรุงเทพมหานคร","PROV_CODE":"10"},"geometry":{"type":"Point","coordinates":[100.5254198,13.7360276]}},{"type":"Feature","properties":{"h_code":"10725","name":"โรงพยาบาลศรีสังวรสุโขทัย","address_th":"1 หมู่ 8 ตำบล คลองตาล อำเภอ ศรีสำโรง สุโขทัย 64120 ไทย","coordinates":{"lat":17.1662015,"lng":99.86509799999999},"province":"สุโขทัย","PROV_CODE":"64"},"geometry":{"type":"Point","coordinates":[99.86509799999999,17.1662015]}},{"type":"Feature","properties":{"h_code":"11729","name":"โรงพยาบาลลาดพร้าว","address_th":"2699 ถ. ลาดพร้าว แขวง คลองเจ้าคุณสิงห์ เขตวังทองหลาง กรุงเทพมหานคร 10310 ไทย","coordinates":{"lat":13.7785034,"lng":100.6237531},"province":"กรุงเทพมหานคร","PROV_CODE":"10"},"geometry":{"type":"Point","coordinates":[100.6237531,13.7785034]}},{"type":"Feature","properties":{"h_code":"77753","name":"โรงพยาบาลเกาะพีพี","address_th":"25/1 หมู่ 7 ตำบล อ่าวนาง อำเภอเมืองกระบี่ กระบี่ 81210 ไทย","coordinates":{"lat":7.7379576,"lng":98.7674967},"province":"กระบี่","PROV_CODE":"81"},"geometry":{"type":"Point","coordinates":[98.7674967,7.7379576]}},{"type":"Feature","properties":{"h_code":"11607","name":"โรงพยาบาลเปาโลเมโมเรียล","address_th":"670, 1 ถ. พหลโยธิน แขวง สามเสนใน เขตพญาไท กรุงเทพมหานคร 10400 ไทย","coordinates":{"lat":13.7921159,"lng":100.5501013},"province":"กรุงเทพมหานคร","PROV_CODE":"10"},"geometry":{"type":"Point","coordinates":[100.5501013,13.7921159]}},{"type":"Feature","properties":{"h_code":"11582","name":"โรงพยาบาลทั่วไปขนาดใหญ่ศิครินทร์","address_th":"976 ถนน ลาซาล แขวง บางนาใต้ เขตบางนา กรุงเทพมหานคร 10260 ไทย","coordinates":{"lat":13.6549267,"lng":100.6463827},"province":"กรุงเทพมหานคร","PROV_CODE":"10"},"geometry":{"type":"Point","coordinates":[100.6463827,13.6549267]}},{"type":"Feature","properties":{"h_code":"11768","name":"โรงพยาบาลจุฬารัตน์9","address_th":"90/5 หมู่13 90 ถนนกิ่งแก้ว ตำบลราชาเทวะ อำเภอบางพลี สมุทรปราการ 10540 ไทย","coordinates":{"lat":13.6774419,"lng":100.7224112},"province":"สมุทรปราการ","PROV_CODE":"11"},"geometry":{"type":"Point","coordinates":[100.7224112,13.6774419]}},{"type":"Feature","properties":{"h_code":"11609","name":"โรงพยาบาลพญาไท 2","address_th":"943 ถ. พหลโยธิน แขวง สามเสนใน เขตพญาไท กรุงเทพมหานคร 10400 ไทย","coordinates":{"lat":13.770237,"lng":100.5404865},"province":"กรุงเทพมหานคร","PROV_CODE":"10"},"geometry":{"type":"Point","coordinates":[100.5404865,13.770237]}},{"type":"Feature","properties":{"h_code":"11645","name":"โรงพยาบาลทั่วไปขนาดใหญ่ธนบุรี","address_th":"369 ถนน รัชดาภิเษก แขวง บุคคโล เขตธนบุรี กรุงเทพมหานคร 10600 ไทย","coordinates":{"lat":13.7087429,"lng":100.4807468},"province":"กรุงเทพมหานคร","PROV_CODE":"10"},"geometry":{"type":"Point","coordinates":[100.4807468,13.7087429]}},{"type":"Feature","properties":{"h_code":"11320","name":"โรงพยาบาลหัวหิน","address_th":"30 2 ถ. เพชรเกษม ตำบลหัวหิน อำเภอหัวหิน ประจวบคีรีขันธ์ 77110 ไทย","coordinates":{"lat":12.6080685,"lng":99.9479176},"province":"ประจวบคีรีขันธ์","PROV_CODE":"77"},"geometry":{"type":"Point","coordinates":[99.9479176,12.6080685]}},{"type":"Feature","properties":{"h_code":"11541","name":"โรงพยาบาลเจริญกรุงประชารักษ์","address_th":"8 ถนน เจริญกรุง แขวง บางคอแหลม เขตบางคอแหลม กรุงเทพมหานคร 10120 ไทย","coordinates":{"lat":13.6944193,"lng":100.4946477},"province":"กรุงเทพมหานคร","PROV_CODE":"10"},"geometry":{"type":"Point","coordinates":[100.4946477,13.6944193]}},{"type":"Feature","properties":{"h_code":"11548","name":"โรงพยาบาลกรุงเทพคริสเตียน","address_th":"124 ถนน สีลม แขวง สุริยวงศ์ เขตบางรัก กรุงเทพมหานคร 10500 ไทย","coordinates":{"lat":13.7282606,"lng":100.5312469},"province":"กรุงเทพมหานคร","PROV_CODE":"10"},"geometry":{"type":"Point","coordinates":[100.5312469,13.7282606]}},{"type":"Feature","properties":{"h_code":"41582","name":"โรงพยาบาลบางนากรุงเทพมหานคร","address_th":"884 ถนน สรรพาวุธ แขวง บางนา เขตบางนา กรุงเทพมหานคร 10260 ไทย","coordinates":{"lat":13.6799751,"lng":100.592206},"province":"กรุงเทพมหานคร","PROV_CODE":"10"},"geometry":{"type":"Point","coordinates":[100.592206,13.6799751]}},{"type":"Feature","properties":{"h_code":"10682","name":"โรงพยาบาลหาดใหญ่","address_th":"182 รัถการ ตำบล หาดใหญ่ อำเภอหาดใหญ่ สงขลา 90110 ไทย","coordinates":{"lat":7.0167471,"lng":100.4674982},"province":"สงขลา","PROV_CODE":"90"},"geometry":{"type":"Point","coordinates":[100.4674982,7.0167471]}},{"type":"Feature","properties":{"h_code":"13757","name":"โรงพยาบาลเวชศาสตร์เขตร้อน มหาวิทยาลัยมหิดล","address_th":"420/6 ถนน ราชวิถี แขวง ทุ่งพญาไท เขตราชเทวี กรุงเทพมหานคร 10400 ไทย","coordinates":{"lat":13.766465,"lng":100.533688},"province":"กรุงเทพมหานคร","PROV_CODE":"10"},"geometry":{"type":"Point","coordinates":[100.533688,13.766465]}},{"type":"Feature","properties":{"h_code":"11540","name":"โรงพยาบาลหลวงพ่อทวีศักดิ์ฯ ชุตินธโร อุทิศ","address_th":"6 ถนน หนองแขม-วัดศรีนวล 1 แขวงหนองแขม เขตหนองแขม กรุงเทพมหานคร 10160 ไทย","coordinates":{"lat":13.6563089,"lng":100.3452855},"province":"กรุงเทพมหานคร","PROV_CODE":"10"},"geometry":{"type":"Point","coordinates":[100.3452855,13.6563089]}},{"type":"Feature","properties":{"h_code":"15199","name":"โรงพยาบาลคณะทันตแพทย์ศาสตร์ จุฬาลงกรณ์มหาวิทยาลัย","address_th":"ถ. อังรีดูนังต์ แขวง ปทุมวัน เขตปทุมวัน กรุงเทพมหานคร 10330 ไทย","coordinates":{"lat":13.7432568,"lng":100.5349815},"province":"กรุงเทพมหานคร","PROV_CODE":"10"},"geometry":{"type":"Point","coordinates":[100.5349815,13.7432568]}},{"type":"Feature","properties":{"h_code":"41072","name":"โรงพยาบาลทั่วไปขนาดเล็กสหวิทยาการมะลิ","address_th":"771/1 ซอย เอกชัย 85 แขวง คลองบางบอน เขตบางบอน กรุงเทพมหานคร 10150 ไทย","coordinates":{"lat":13.6729263,"lng":100.4242219},"province":"กรุงเทพมหานคร","PROV_CODE":"10"},"geometry":{"type":"Point","coordinates":[100.4242219,13.6729263]}},{"type":"Feature","properties":{"h_code":"11714","name":"โรงพยาบาลทั่วไปขนาดใหญ่วิชัยยุทธ","address_th":"53 ถนน พระรามที่ 6 แขวง สามเสนใน เขตพญาไท กรุงเทพมหานคร 10400 ไทย","coordinates":{"lat":13.7804409,"lng":100.5329741},"province":"กรุงเทพมหานคร","PROV_CODE":"10"},"geometry":{"type":"Point","coordinates":[100.5329741,13.7804409]}},{"type":"Feature","properties":{"h_code":"11597","name":"สถาบันกัลยาณ์ราชนครินทร์","address_th":"23 ถนน พุทธมณฑลสาย 4 แขวง ทวีวัฒนา เขตทวีวัฒนา กรุงเทพมหานคร 10170 ไทย","coordinates":{"lat":13.7629594,"lng":100.3309115},"province":"กรุงเทพมหานคร","PROV_CODE":"10"},"geometry":{"type":"Point","coordinates":[100.3309115,13.7629594]}},{"type":"Feature","properties":{"h_code":"14637","name":"สำนักงานป้องกันควบคุมโรคที่ 5จังหวัดราชบุรี","address_th":"123/202 ซอย 1 เพชรเกษม ตำบล หน้าเมือง อำเภอเมืองราชบุรี ราชบุรี 70000 ไทย","coordinates":{"lat":13.5281965,"lng":99.8051818},"province":"ราชบุรี","PROV_CODE":"70"},"geometry":{"type":"Point","coordinates":[99.8051818,13.5281965]}},{"type":"Feature","properties":{"h_code":"23783","name":"โรงพยาบาลเสรีรักษ์","address_th":"44 ถ. เสรีไทย แขวง มีนบุรี เขตมีนบุรี กรุงเทพมหานคร 10510 ไทย","coordinates":{"lat":13.8100361,"lng":100.7174797},"province":"กรุงเทพมหานคร","PROV_CODE":"10"},"geometry":{"type":"Point","coordinates":[100.7174797,13.8100361]}},{"type":"Feature","properties":{"h_code":"14908","name":"โรงพยาบาลการุญเวช สุขาภิบาล3","address_th":"99/9 ถนนรามคำแหง แขวง สะพานสูง เขตสะพานสูง กรุงเทพมหานคร 10240 ไทย","coordinates":{"lat":13.7764543,"lng":100.6740933},"province":"กรุงเทพมหานคร","PROV_CODE":"10"},"geometry":{"type":"Point","coordinates":[100.6740933,13.7764543]}},{"type":"Feature","properties":{"h_code":"11595","name":"นวมินทร์โรงพยาบาลทั่วไปขนาดใหญ่","address_th":"44 505 ถนนนวมินทร์ แขวง นวลจันทร์ เขต บึงกุ่ม กรุงเทพมหานคร 10230 ไทย","coordinates":{"lat":13.8252866,"lng":100.6575798},"province":"กรุงเทพมหานคร","PROV_CODE":"10"},"geometry":{"type":"Point","coordinates":[100.6575798,13.8252866]}},{"type":"Feature","properties":{"h_code":"11670","name":"โรงพยาบาลบางปะกอก 1","address_th":"2 ซอย สุขสวัสดิ์ 25/1 แขวง บางปะกอก เขตราษฎร์บูรณะ กรุงเทพมหานคร 10140 ไทย","coordinates":{"lat":13.6789235,"lng":100.498929},"province":"กรุงเทพมหานคร","PROV_CODE":"10"},"geometry":{"type":"Point","coordinates":[100.498929,13.6789235]}},{"type":"Feature","properties":{"h_code":"11644","name":"โรงพยาบาลเจ้าพระยา","address_th":"113/44 ถนน บรมราชชนนี แขวง อรุณอมรินทร์ เขตบางกอกน้อย กรุงเทพมหานคร 10700 ไทย","coordinates":{"lat":13.7804403,"lng":100.4706051},"province":"กรุงเทพมหานคร","PROV_CODE":"10"},"geometry":{"type":"Point","coordinates":[100.4706051,13.7804403]}},{"type":"Feature","properties":{"h_code":"12439","name":"สถาบันประสาทวิทยา","address_th":"สถาบันประสาทวิทยา แขวง ทุ่งพญาไท เขตราชเทวี กรุงเทพมหานคร 10400 ไทย","coordinates":{"lat":13.7686777,"lng":100.5272122},"province":"กรุงเทพมหานคร","PROV_CODE":"10"},"geometry":{"type":"Point","coordinates":[100.5272122,13.7686777]}},{"type":"Feature","properties":{"h_code":"14572","name":"โรงพยาบาลบี.แคร์.เมดิคอลเซ็นเตอร์","address_th":"29 Moo 6 ถ. พหลโยธิน แขวง สายไหม เขตสายไหม กรุงเทพมหานคร 10220 ไทย","coordinates":{"lat":13.9433853,"lng":100.6245445},"province":"กรุงเทพมหานคร","PROV_CODE":"10"},"geometry":{"type":"Point","coordinates":[100.6245445,13.9433853]}},{"type":"Feature","properties":{"h_code":"11720","name":"โรงพยาบาลเทพธารินทร์","address_th":"3850 ถนนพระรามที่ ๔ แขวง พระโขนง เขตคลองเตย กรุงเทพมหานคร 10110 ไทย","coordinates":{"lat":13.7146245,"lng":100.5768054},"province":"กรุงเทพมหานคร","PROV_CODE":"10"},"geometry":{"type":"Point","coordinates":[100.5768054,13.7146245]}},{"type":"Feature","properties":{"h_code":"11583","name":"โรงพยาบาลกล้วยน้ำไท","address_th":"แขวง พระโขนง เขตคลองเตย กรุงเทพมหานคร 10110 ไทย","coordinates":{"lat":13.7128678,"lng":100.5889976},"province":"กรุงเทพมหานคร","PROV_CODE":"10"},"geometry":{"type":"Point","coordinates":[100.5889976,13.7128678]}},{"type":"Feature","properties":{"h_code":"11564","name":"โรงพยาบาลเวชธานี","address_th":"1 ซอย ลาดพร้าว 111 แขวง คลองจั่น เขตบางกะปิ กรุงเทพมหานคร 10240 ไทย","coordinates":{"lat":13.7718945,"lng":100.6369352},"province":"กรุงเทพมหานคร","PROV_CODE":"10"},"geometry":{"type":"Point","coordinates":[100.6369352,13.7718945]}},{"type":"Feature","properties":{"h_code":"11468","name":"ทัณฑสถานโรงพยาบาลราชทัณฑ์","address_th":"33/2 ถนน งามวงศ์วาน แขวง ลาดยาว เขตจตุจักร กรุงเทพมหานคร 10900 ไทย","coordinates":{"lat":13.8511678,"lng":100.5540982},"province":"กรุงเทพมหานคร","PROV_CODE":"10"},"geometry":{"type":"Point","coordinates":[100.5540982,13.8511678]}},{"type":"Feature","properties":{"h_code":"14906","name":"สำนักงานป้องกันควบคุมโรคที่12จังหวัดสงขลา","address_th":"ตำบล เขารูปช้าง อำเภอเมืองสงขลา สงขลา 90000 ไทย","coordinates":{"lat":7.1520252,"lng":100.6201784},"province":"สงขลา","PROV_CODE":"90"},"geometry":{"type":"Point","coordinates":[100.6201784,7.1520252]}},{"type":"Feature","properties":{"h_code":"11616","name":"โรงพยาบาลสมิติเวชธนบุรี","address_th":"337 ถนน สมเด็จพระเจ้าตากสิน แขวง สำเหร่ เขตธนบุรี กรุงเทพมหานคร 10600 ไทย","coordinates":{"lat":13.7144589,"lng":100.4895495},"province":"กรุงเทพมหานคร","PROV_CODE":"10"},"geometry":{"type":"Point","coordinates":[100.4895495,13.7144589]}},{"type":"Feature","properties":{"h_code":"13779","name":"โรงพยาบาลสงขลานครินทร์ มหาวิทยาลัยสงขลานครินทร์","address_th":"ถนน กาญจนวนิช ซอย 15 ตำบล คอหงส์ อำเภอหาดใหญ่ สงขลา 90110 ไทย","coordinates":{"lat":7.006915,"lng":100.4944626},"province":"สงขลา","PROV_CODE":"90"},"geometry":{"type":"Point","coordinates":[100.4944626,7.006915]}},{"type":"Feature","properties":{"h_code":"41577","name":"โรงพยาบาลธนบุรี บำรุงเมือง โรงพยาบาลทั่วไปขนาดกลาง","address_th":"611 ถ. บำรุงเมือง แขวง คลองมหานาค เขตป้อมปราบศัตรูพ่าย กรุงเทพมหานคร 10100 ไทย","coordinates":{"lat":13.7505372,"lng":100.5145556},"province":"กรุงเทพมหานคร","PROV_CODE":"10"},"geometry":{"type":"Point","coordinates":[100.5145556,13.7505372]}},{"type":"Feature","properties":{"h_code":"21673","name":"โรงพยาบาลซีจีเอช สายไหม โรงพยาบาลทั่วไปขนาดใหญ่","address_th":"หมู่ 1 91 ถนน เฉลิมพงษ์ แขวง สายไหม เขตสายไหม กรุงเทพมหานคร 10220 ไทย","coordinates":{"lat":13.9239176,"lng":100.684069},"province":"กรุงเทพมหานคร","PROV_CODE":"10"},"geometry":{"type":"Point","coordinates":[100.684069,13.9239176]}},{"type":"Feature","properties":{"h_code":"11581","name":"โรงพยาบาลผู้สูงอายุขนาดกลางกล้วยน้ำไท 2","address_th":"27 ซอย สุขุมวิท 68 แขวง บางนาเหนือ เขตบางนา กรุงเทพมหานคร 10260 ไทย","coordinates":{"lat":13.6770643,"lng":100.6069928},"province":"กรุงเทพมหานคร","PROV_CODE":"10"},"geometry":{"type":"Point","coordinates":[100.6069928,13.6770643]}},{"type":"Feature","properties":{"h_code":"11715","name":"โรงพยาบาลพญาไท 1","address_th":"364/1 ถ. ศรีอยุธยา แขวง ถนนพญาไท เขตราชเทวี กรุงเทพมหานคร 10400 ไทย","coordinates":{"lat":13.7562641,"lng":100.5394184},"province":"กรุงเทพมหานคร","PROV_CODE":"10"},"geometry":{"type":"Point","coordinates":[100.5394184,13.7562641]}},{"type":"Feature","properties":{"h_code":"41670","name":"สิรินาถ บึงกุ่ม โรงพยาบาลทั่วไปขนาดกลาง","address_th":"10/1288 ถนนนวมินทร์ แขวง นวมินทร์ เขต บึงกุ่ม กรุงเทพมหานคร 10240 ไทย","coordinates":{"lat":13.7995089,"lng":100.648152},"province":"กรุงเทพมหานคร","PROV_CODE":"10"},"geometry":{"type":"Point","coordinates":[100.648152,13.7995089]}},{"type":"Feature","properties":{"h_code":"11004","name":"โรงพยาบาลพล","address_th":"ตำบล เมืองพล อำเภอพล ขอนแก่น 40120 ไทย","coordinates":{"lat":15.816555,"lng":102.608021},"province":"ขอนแก่น","PROV_CODE":"40"},"geometry":{"type":"Point","coordinates":[102.608021,15.816555]}},{"type":"Feature","properties":{"h_code":"11552","name":"โรงพยาบาลมเหสักข์","address_th":"46/7 ถนน มเหสักข์ แขวง สุริยวงศ์ เขตบางรัก กรุงเทพมหานคร 10500 ไทย","coordinates":{"lat":13.7253419,"lng":100.5196117},"province":"กรุงเทพมหานคร","PROV_CODE":"10"},"geometry":{"type":"Point","coordinates":[100.5196117,13.7253419]}},{"type":"Feature","properties":{"h_code":"11676","name":"โรงพยาบาลยันฮี","address_th":"454 ถ. จรัญสนิทวงศ์ แขวง บางอ้อ เขตบางพลัด กรุงเทพมหานคร 10700 ไทย","coordinates":{"lat":13.7994936,"lng":100.5115719},"province":"กรุงเทพมหานคร","PROV_CODE":"10"},"geometry":{"type":"Point","coordinates":[100.5115719,13.7994936]}},{"type":"Feature","properties":{"h_code":"11398","name":"โรงพยาบาลปาดังเบซาร์","address_th":"ตำบล ปาดังเบซาร์ อำเภอสะเดา สงขลา 90240 ไทย","coordinates":{"lat":6.6517991,"lng":100.3414779},"province":"สงขลา","PROV_CODE":"90"},"geometry":{"type":"Point","coordinates":[100.3414779,6.6517991]}},{"type":"Feature","properties":{"h_code":"11469","name":"โรงพยาบาลเลิดสิน","address_th":"190 ถนน สีลม แขวง สีลม เขตบางรัก กรุงเทพมหานคร 10500 ไทย","coordinates":{"lat":13.7221964,"lng":100.5173902},"province":"กรุงเทพมหานคร","PROV_CODE":"10"},"geometry":{"type":"Point","coordinates":[100.5173902,13.7221964]}},{"type":"Feature","properties":{"h_code":"11538","name":"โรงพยาบาลลาดกระบังกรุงเทพมหานคร","address_th":"2 ซอย ลาดกระบัง 15 แขวง ลาดกระบัง เขตลาดกระบัง กรุงเทพมหานคร 10520 ไทย","coordinates":{"lat":13.7224653,"lng":100.7841349},"province":"กรุงเทพมหานคร","PROV_CODE":"10"},"geometry":{"type":"Point","coordinates":[100.7841349,13.7224653]}},{"type":"Feature","properties":{"h_code":"14633","name":"สำนักงานป้องกันควบคุมโรคที่ 2 จังหวัดพิษณุโลก","address_th":"ซอย กลางคลอง 5 เมือง, อำเภอเมืองพิษณุโลก พิษณุโลก 65000 ไทย","coordinates":{"lat":16.8497294,"lng":100.2653307},"province":"พิษณุโลก","PROV_CODE":"65"},"geometry":{"type":"Point","coordinates":[100.2653307,16.8497294]}},{"type":"Feature","properties":{"h_code":"11536","name":"โรงพยาบาลเวชการุณย์รัศมิ์","address_th":"38, 2 ถนน เลียบวารี แขวง กระทุ่มราย เขต หนองจอก กรุงเทพมหานคร 10530 ไทย","coordinates":{"lat":13.8567013,"lng":100.8590043},"province":"กรุงเทพมหานคร","PROV_CODE":"10"},"geometry":{"type":"Point","coordinates":[100.8590043,13.8567013]}},{"type":"Feature","properties":{"h_code":"42205","name":"โรงพยาบาลเฉพาะทางศัลยกรรมตกแต่งและทันตกรรมขนาดเล็ก เอสแอลซี","address_th":"916, 5 ซ. สุขุมวิท 55 แขวง คลองตันเหนือ เขตวัฒนา กรุงเทพมหานคร 10110 ไทย","coordinates":{"lat":13.7383799,"lng":100.5844391},"province":"กรุงเทพมหานคร","PROV_CODE":"10"},"geometry":{"type":"Point","coordinates":[100.5844391,13.7383799]}},{"type":"Feature","properties":{"h_code":"14631","name":"สำนักงานป้องกันควบคุมโรคที่ 9 จังหวัดนครราชสีมา","address_th":"174 ถ. ราชสีมา - โชคชัย ตำบล หนองบัวศาลา อำเภอเมืองนครราชสีมา นครราชสีมา 30000 ไทย","coordinates":{"lat":14.9113635,"lng":102.1513581},"province":"นครราชสีมา","PROV_CODE":"30"},"geometry":{"type":"Point","coordinates":[102.1513581,14.9113635]}},{"type":"Feature","properties":{"h_code":"11641","name":"โรงพยาบาลทั่วไปขนาดกลางโรงพยาบาลวิชัยเวช แยกไฟฉาย","address_th":"240/2-4 ถ. จรัญสนิทวงศ์ แขวง บ้านช่างหล่อ เขตบางกอกน้อย กรุงเทพมหานคร 10700 ไทย","coordinates":{"lat":13.7558572,"lng":100.4695658},"province":"กรุงเทพมหานคร","PROV_CODE":"10"},"geometry":{"type":"Point","coordinates":[100.4695658,13.7558572]}},{"type":"Feature","properties":{"h_code":"11686","name":"โรงพยาบาลบางโพ","address_th":"โรงพยาบาลบางโพ (Bangpo Hospital 95 ถนน ประชาราษฎร์ สาย 2 แขวง บางซื่อ เขตบางซื่อ กรุงเทพมหานคร 10800 ไทย","coordinates":{"lat":13.8070111,"lng":100.5232873},"province":"กรุงเทพมหานคร","PROV_CODE":"10"},"geometry":{"type":"Point","coordinates":[100.5232873,13.8070111]}},{"type":"Feature","properties":{"h_code":"85277","name":"โรงพยาบาลเฉพาะประเภทผู้ป่วยสูงอายุ เฌ้อสเซอรี่โฮมขนาดเล็ก","address_th":"20 45 ถ. บางแวก แขวง บางแวก เขตภาษีเจริญ กรุงเทพมหานคร 10160 ไทย","coordinates":{"lat":13.7358346,"lng":100.44466},"province":"กรุงเทพมหานคร","PROV_CODE":"10"},"geometry":{"type":"Point","coordinates":[100.44466,13.7358346]}},{"type":"Feature","properties":{"h_code":"11341","name":"โรงพยาบาลเกาะลันตา","address_th":"118 อำเภอเกาะลันตา กระบี่ 81150 ไทย","coordinates":{"lat":7.5196285,"lng":99.0975641},"province":"กระบี่","PROV_CODE":"81"},"geometry":{"type":"Point","coordinates":[99.0975641,7.5196285]}},{"type":"Feature","properties":{"h_code":"12265","name":"สำนักงานป้องกันควบคุมโรคที่ 4 จังหวัดสระบุรี","address_th":"76 หมู่ 5 ถนน พหลโยธิน พระพุทธบาท สระบุรี 18120 ไทย","coordinates":{"lat":14.737431,"lng":100.773392},"province":"สระบุรี","PROV_CODE":"19"},"geometry":{"type":"Point","coordinates":[100.773392,14.737431]}},{"type":"Feature","properties":{"h_code":"10998","name":"โรงพยาบาลชุมแพ","address_th":"หมู่ 8 82 ถนนมะลิวัลย์ ตำบล ชุมแพ อำเภอชุมแพ ขอนแก่น 40130 ไทย","coordinates":{"lat":16.5456741,"lng":102.0994965},"province":"ขอนแก่น","PROV_CODE":"40"},"geometry":{"type":"Point","coordinates":[102.0994965,16.5456741]}},{"type":"Feature","properties":{"h_code":"11694","name":"โรงพยาบาลจักษุรัตนิน","address_th":"80/1 ถนน สุขุมวิท 21 แขวง คลองเตยเหนือ เขตวัฒนา กรุงเทพมหานคร 10110 ไทย","coordinates":{"lat":13.746461,"lng":100.5630061},"province":"กรุงเทพมหานคร","PROV_CODE":"10"},"geometry":{"type":"Point","coordinates":[100.5630061,13.746461]}},{"type":"Feature","properties":{"h_code":"10822","name":"โรงพยาบาลพนัสนิคม","address_th":"68 หมู่ที่ 6 ถนน ศุขประยูร ตำบล กุฏโง้ง อำเภอพนัสนิคม ชลบุรี 20140 ไทย","coordinates":{"lat":13.4599834,"lng":101.1724349},"province":"ชลบุรี","PROV_CODE":"20"},"geometry":{"type":"Point","coordinates":[101.1724349,13.4599834]}},{"type":"Feature","properties":{"h_code":"41414","name":"โรงพยาบาลทหารอากาศ (สีกัน)","address_th":"555 ถนน เดชะตุงคะ แขวง สีกัน เขตดอนเมือง กรุงเทพมหานคร 10210 ไทย","coordinates":{"lat":13.94112,"lng":100.58133},"province":"กรุงเทพมหานคร","PROV_CODE":"10"},"geometry":{"type":"Point","coordinates":[100.58133,13.94112]}},{"type":"Feature","properties":{"h_code":"11703","name":"โรงพยาบาลแพทย์ปัญญา","address_th":"124, 126 ซอย รามคำแหง 4 แขวง สวนหลวง แขวงสวนหลวง กรุงเทพมหานคร 10250 ไทย","coordinates":{"lat":13.7438941,"lng":100.6074312},"province":"กรุงเทพมหานคร","PROV_CODE":"10"},"geometry":{"type":"Point","coordinates":[100.6074312,13.7438941]}},{"type":"Feature","properties":{"h_code":"11388","name":"โรงพยาบาลสมเด็จพระบรมราชินีนาถ ณ อำเภอนาทวี","address_th":"20 ถนน นาทวี ประกอบ ตำบล นาทวี อำเภอ นาทวี สงขลา 90160 ไทย","coordinates":{"lat":6.7293702,"lng":100.6936391},"province":"สงขลา","PROV_CODE":"90"},"geometry":{"type":"Point","coordinates":[100.6936391,6.7293702]}},{"type":"Feature","properties":{"h_code":"10817","name":"โรงพยาบาลบ้านบึง","address_th":"3 ซ.19 ถ.บ้านบึง - ชลบุรี ตำบล บ้านบึง อำเภอบ้านบึง ชลบุรี 20170 ไทย","coordinates":{"lat":13.316326,"lng":101.109491},"province":"ชลบุรี","PROV_CODE":"20"},"geometry":{"type":"Point","coordinates":[101.109491,13.316326]}},{"type":"Feature","properties":{"h_code":"10870","name":"โรงพยาบาลอรัญประเทศ","address_th":"4 ถนน มหาดไทย ตำบล อรัญประเทศ อำเภออรัญประเทศ สระแก้ว 27120 ไทย","coordinates":{"lat":13.6907711,"lng":102.5030701},"province":"สระแก้ว","PROV_CODE":"27"},"geometry":{"type":"Point","coordinates":[102.5030701,13.6907711]}},{"type":"Feature","properties":{"h_code":"12275","name":"โรงพยาบาลสิรินธร(ภาคตะวันออกเฉียงเหนือ)","address_th":"82 ถ. มิตรภาพ ตำบลโนนสมบูรณ์ อำเภอบ้านแฮด ขอนแก่น 40110 ไทย","coordinates":{"lat":16.2505924,"lng":102.7729207},"province":"ขอนแก่น","PROV_CODE":"40"},"geometry":{"type":"Point","coordinates":[102.7729207,16.2505924]}},{"type":"Feature","properties":{"h_code":"23930","name":"โรงพยาบาลทั่วไปขนาดใหญ่ศูนย์การแพทย์วิชัยยุทธ","address_th":"53 ถนน พระรามที่ 6 แขวง สามเสนใน เขตพญาไท กรุงเทพมหานคร 10400 ไทย","coordinates":{"lat":13.7804409,"lng":100.5329741},"province":"กรุงเทพมหานคร","PROV_CODE":"10"},"geometry":{"type":"Point","coordinates":[100.5329741,13.7804409]}},{"type":"Feature","properties":{"h_code":"12449","name":"กองพยาบาล กรมแผนที่ทหารกองบัญชากองทัพไทย","address_th":"111 ถนน ราชดำเนินนอก แขวง บางขุนพรหม เขตพระนคร กรุงเทพมหานคร 10200 ไทย","coordinates":{"lat":13.7607042,"lng":100.507489},"province":"กรุงเทพมหานคร","PROV_CODE":"10"},"geometry":{"type":"Point","coordinates":[100.507489,13.7607042]}},{"type":"Feature","properties":{"h_code":"40865","name":"โรงพยาบาลทั่วไปขนาดเล็ก เอส วาย เอช","address_th":"11 ซอย พหลโยธิน 48 แยก 14 อนุสาวรีย์ เขตบางเขน กรุงเทพมหานคร 10220 ไทย","coordinates":{"lat":13.8822204,"lng":100.6075741},"province":"กรุงเทพมหานคร","PROV_CODE":"10"},"geometry":{"type":"Point","coordinates":[100.6075741,13.8822204]}},{"type":"Feature","properties":{"h_code":"23771","name":"โรงพยาบาลยี่งอเฉลิมพระเกียรติ 80 พรรษา","address_th":"ตำบล ยี่งอ อำเภอ ยี่งอ นราธิวาส 96180 ไทย","coordinates":{"lat":6.393419799999999,"lng":101.6923747},"province":"นราธิวาส","PROV_CODE":"96"},"geometry":{"type":"Point","coordinates":[101.6923747,6.393419799999999]}},{"type":"Feature","properties":{"h_code":"11379","name":"โรงพยาบาลหลังสวน","address_th":"82 หมู่ 5 ถ.เพชรเกษม ตำบลวังตะกอ อำเภอหลังสวน ชุมพร 86110 ไทย","coordinates":{"lat":9.9832143,"lng":99.0671137},"province":"ชุมพร","PROV_CODE":"86"},"geometry":{"type":"Point","coordinates":[99.0671137,9.9832143]}},{"type":"Feature","properties":{"h_code":"24923","name":"โรงพยาบาลสถาบันโรคไตภูมิราชนครินทร์","address_th":"8/99 ถนน พญาไท แขวง ทุ่งพญาไท เขตราชเทวี กรุงเทพมหานคร 10400 ไทย","coordinates":{"lat":13.7599533,"lng":100.5346235},"province":"กรุงเทพมหานคร","PROV_CODE":"10"},"geometry":{"type":"Point","coordinates":[100.5346235,13.7599533]}},{"type":"Feature","properties":{"h_code":"23956","name":"โรงพยาบาลผิวหนังอโศก","address_th":"18 ถนน อโศก - ดินแดง แขวง บางกะปิ เขตห้วยขวาง กรุงเทพมหานคร 10310 ไทย","coordinates":{"lat":13.7508281,"lng":100.5642978},"province":"กรุงเทพมหานคร","PROV_CODE":"10"},"geometry":{"type":"Point","coordinates":[100.5642978,13.7508281]}},{"type":"Feature","properties":{"h_code":"10825","name":"โรงพยาบาลสัตหีบกม10","address_th":"331 ทางหลวงยุทธศาสตร์ สัตหีบ - พนมสารคาม ตำบล พลูตาหลวง อำเภอสัตหีบ ชลบุรี 20180 ไทย","coordinates":{"lat":12.6976625,"lng":100.9739744},"province":"ชลบุรี","PROV_CODE":"20"},"geometry":{"type":"Point","coordinates":[100.9739744,12.6976625]}},{"type":"Feature","properties":{"h_code":"14632","name":"สำนักงานป้องกันควบคุมโรคที่ 10 จังหวัดอุบลราชธานี","address_th":"449 ถนน พรหมราช ตำบล ในเมือง อำเภอเมืองอุบลราชธานี อุบลราชธานี 34000 ไทย","coordinates":{"lat":15.2252395,"lng":104.8546354},"province":"อุบลราชธานี","PROV_CODE":"34"},"geometry":{"type":"Point","coordinates":[104.8546354,15.2252395]}},{"type":"Feature","properties":{"h_code":"11395","name":"โรงพยาบาลสะเดา","address_th":"ตำบล สะเดา อำเภอสะเดา สงขลา 90120 ไทย","coordinates":{"lat":6.6353867,"lng":100.4071936},"province":"สงขลา","PROV_CODE":"90"},"geometry":{"type":"Point","coordinates":[100.4071936,6.6353867]}},{"type":"Feature","properties":{"h_code":"85323","name":"โรงพยาบาลผู้ป่วยเรื้อรังภัสรพิบาลเนอสซิ่งโฮมขนาดเล็ก","address_th":"185 ซอย ลาดพร้าว 71 แขวง สะพานสอง เขตวังทองหลาง กรุงเทพมหานคร 10310 ไทย","coordinates":{"lat":13.7945805,"lng":100.6072415},"province":"กรุงเทพมหานคร","PROV_CODE":"10"},"geometry":{"type":"Point","coordinates":[100.6072415,13.7945805]}},{"type":"Feature","properties":{"h_code":"41767","name":"บี บี เอชโรงพยาบาลผู้ป่วยเรื้อรังขนาดเล็ก","address_th":"11 ซ. สุขุมวิท 39 แขวง คลองตันเหนือ เขตวัฒนา กรุงเทพมหานคร 10110 ไทย","coordinates":{"lat":13.7320074,"lng":100.570555},"province":"กรุงเทพมหานคร","PROV_CODE":"10"},"geometry":{"type":"Point","coordinates":[100.570555,13.7320074]}},{"type":"Feature","properties":{"h_code":"11442","name":"โรงพยาบาลสุไหงปาดี","address_th":"306 ถนนจารุเสรียร, ตำบล ปะลุรู อำเภอ สุไหงปาดี นราธิวาส 96140 ไทย","coordinates":{"lat":6.081912,"lng":101.87747},"province":"นราธิวาส","PROV_CODE":"96"},"geometry":{"type":"Point","coordinates":[101.87747,6.081912]}},{"type":"Feature","properties":{"h_code":"11626","name":"โรงพยาบาลคลองตัน","address_th":"3284 ถนน เพชรบุรีตัดใหม่ แขวง บางกะปิ เขตห้วยขวาง กรุงเทพมหานคร 10310 ไทย","coordinates":{"lat":13.7420586,"lng":100.5945526},"province":"กรุงเทพมหานคร","PROV_CODE":"10"},"geometry":{"type":"Point","coordinates":[100.5945526,13.7420586]}},{"type":"Feature","properties":{"h_code":"14955","name":"สถาบันสุขภาพจิตเด็กและวัยรุ่นราชนครินทร์","address_th":"75, 1 ถนน พระรามที่ ๖ แขวง ทุ่งพญาไท เขตราชเทวี กรุงเทพมหานคร 10400 ไทย","coordinates":{"lat":13.7661153,"lng":100.5278682},"province":"กรุงเทพมหานคร","PROV_CODE":"10"},"geometry":{"type":"Point","coordinates":[100.5278682,13.7661153]}},{"type":"Feature","properties":{"h_code":"11629","name":"โรงพยาบาลเพชรเวช","address_th":"2469 13,15 ถนน เพชรบุรีตัดใหม่ แขวง คลองตันเหนือ เขตห้วยขวาง กรุงเทพมหานคร 10310 ไทย","coordinates":{"lat":13.7427774,"lng":100.5947169},"province":"กรุงเทพมหานคร","PROV_CODE":"10"},"geometry":{"type":"Point","coordinates":[100.5947169,13.7427774]}},{"type":"Feature","properties":{"h_code":"11522","name":"โรงพยาบาลค่ายธนะรัชต์","address_th":"ตำบล เขาน้อย อำเภอปราณบุรี ประจวบคีรีขันธ์ 77120 ไทย","coordinates":{"lat":12.4101098,"lng":99.92286639999999},"province":"ประจวบคีรีขันธ์","PROV_CODE":"77"},"geometry":{"type":"Point","coordinates":[99.92286639999999,12.4101098]}},{"type":"Feature","properties":{"h_code":"11532","name":"โรงพยาบาลสวนเบญจกิติเฉลิมพระเกียรติ84พรรษา","address_th":"ถนนพระรามที่ ๔ แขวง คลองเตย เขตคลองเตย กรุงเทพมหานคร 10110 ไทย","coordinates":{"lat":13.7245502,"lng":100.5538564},"province":"กรุงเทพมหานคร","PROV_CODE":"10"},"geometry":{"type":"Point","coordinates":[100.5538564,13.7245502]}},{"type":"Feature","properties":{"h_code":"10826","name":"โรงพยาบาลบ่อทอง","address_th":"หมู่ที่ 1 2 ตำบล บ่อทอง อำเภอบ่อทอง ชลบุรี 20270 ไทย","coordinates":{"lat":13.282661,"lng":101.4196894},"province":"ชลบุรี","PROV_CODE":"20"},"geometry":{"type":"Point","coordinates":[101.4196894,13.282661]}},{"type":"Feature","properties":{"h_code":"11571","name":"สถานพยาบาลเจตนิน","address_th":"5 ซอย ชิดลม แขวง ลุมพินี เขตปทุมวัน กรุงเทพมหานคร 10330 ไทย","coordinates":{"lat":13.7471891,"lng":100.5447766},"province":"กรุงเทพมหานคร","PROV_CODE":"10"},"geometry":{"type":"Point","coordinates":[100.5447766,13.7471891]}},{"type":"Feature","properties":{"h_code":"41580","name":"โรงพยาบาลบุญญาเวช โรงพยาบาลทั่วไปขนาดเล็ก","address_th":"834/1 ถ. เพชรเกษม แขวง บางแคเหนือ เขตบางแค กรุงเทพมหานคร 10160 ไทย","coordinates":{"lat":13.7093181,"lng":100.3863022},"province":"กรุงเทพมหานคร","PROV_CODE":"10"},"geometry":{"type":"Point","coordinates":[100.3863022,13.7093181]}},{"type":"Feature","properties":{"h_code":"40856","name":"โรงพยาบาลสมิติเวชไชน่าทาวน์โรงพยาบาลทั่วไปขนาดกลาง","address_th":"624 ถนน เยาวราช แขวง สัมพันธวงศ์ เขตสัมพันธวงศ์ กรุงเทพมหานคร 10100 ไทย","coordinates":{"lat":13.737828,"lng":100.512612},"province":"กรุงเทพมหานคร","PROV_CODE":"10"},"geometry":{"type":"Point","coordinates":[100.512612,13.737828]}},{"type":"Feature","properties":{"h_code":"11697","name":"โรงพยาบาลคามิลเลียน","address_th":"423 ซ. สุขุมวิท 55 แขวง คลองตันเหนือ เขตวัฒนา กรุงเทพมหานคร 10110 ไทย","coordinates":{"lat":13.7393035,"lng":100.5835462},"province":"กรุงเทพมหานคร","PROV_CODE":"10"},"geometry":{"type":"Point","coordinates":[100.5835462,13.7393035]}},{"type":"Feature","properties":{"h_code":"11704","name":"โรงพยาบาลสมิติเวช ศรีนครินทร์โรงพยาบาลทั่วไปขนาดใหญ่","address_th":"488 ถนน ศรีนครินทร์ แขวง สวนหลวง แขวงสวนหลวง กรุงเทพมหานคร 10250 ไทย","coordinates":{"lat":13.7486975,"lng":100.6384801},"province":"กรุงเทพมหานคร","PROV_CODE":"10"},"geometry":{"type":"Point","coordinates":[100.6384801,13.7486975]}},{"type":"Feature","properties":{"h_code":"12246","name":"สถาบันราชานุกูล","address_th":"ดินแดง กรุงเทพมหานคร 10400 ไทย","coordinates":{"lat":13.7610947,"lng":100.5543068},"province":"กรุงเทพมหานคร","PROV_CODE":"10"},"geometry":{"type":"Point","coordinates":[100.5543068,13.7610947]}},{"type":"Feature","properties":{"h_code":"10824","name":"โรงพยาบาลเกาะสีชัง","address_th":"59 ตำบล ท่าเทววงษ์ อำเภอ เกาะสีชัง ชลบุรี 20120 ไทย","coordinates":{"lat":13.1633638,"lng":100.8076679},"province":"ชลบุรี","PROV_CODE":"20"},"geometry":{"type":"Point","coordinates":[100.8076679,13.1633638]}},{"type":"Feature","properties":{"h_code":"41894","name":"โรงพยาบาลศิรินโรงพยาบาลเฉพาะผู้ป่วยเรื้อรังขนาดเล็ก","address_th":"8 ซอย กรุงเทพกรีฑา 8 แยก 16 แขวง หัวหมาก เขตบางกะปิ กรุงเทพมหานคร 10240 ไทย","coordinates":{"lat":13.7404001,"lng":100.6536708},"province":"กรุงเทพมหานคร","PROV_CODE":"10"},"geometry":{"type":"Point","coordinates":[100.6536708,13.7404001]}},{"type":"Feature","properties":{"h_code":"11439","name":"โรงพยาบาลศรีสาคร","address_th":"108 หมู่ 2 ตำบล ซากอ อำเภอ ศรีสาคร นราธิวาส 96210 ไทย","coordinates":{"lat":6.2404175,"lng":101.4988045},"province":"นราธิวาส","PROV_CODE":"96"},"geometry":{"type":"Point","coordinates":[101.4988045,6.2404175]}},{"type":"Feature","properties":{"h_code":"11343","name":"โรงพยาบาลอ่าวลึก","address_th":"ตำบล อ่าวลึกใต้ อำเภอ อ่าวลึก กระบี่ 81110 ไทย","coordinates":{"lat":8.4017506,"lng":98.74232669999999},"province":"กระบี่","PROV_CODE":"81"},"geometry":{"type":"Point","coordinates":[98.74232669999999,8.4017506]}},{"type":"Feature","properties":{"h_code":"23780","name":"โรงพยาบาลมนารมย์","address_th":"9 ซอย สุขุมวิท 70/3 แขวง บางนา เขตบางนา กรุงเทพมหานคร 10260 ไทย","coordinates":{"lat":13.6646221,"lng":100.6018156},"province":"กรุงเทพมหานคร","PROV_CODE":"10"},"geometry":{"type":"Point","coordinates":[100.6018156,13.6646221]}},{"type":"Feature","properties":{"h_code":"11435","name":"โรงพยาบาลตากใบ","address_th":"114/63 หมู่ 3 ตำบล เจ๊ะเห อำเภอ ตากใบ นราธิวาส 96110 ไทย","coordinates":{"lat":6.2506143,"lng":102.0462731},"province":"นราธิวาส","PROV_CODE":"96"},"geometry":{"type":"Point","coordinates":[102.0462731,6.2506143]}},{"type":"Feature","properties":{"h_code":"11519","name":"โรงพยาบาลค่ายภาณุรังษี","address_th":"กรมการทหารช่าง ค่ายภาณุรังษี จังหวัด ราชบุรี ไทย อำเภอเมืองราชบุรี ราชบุรี 70000 ไทย","coordinates":{"lat":13.5426076,"lng":99.821146},"province":"ราชบุรี","PROV_CODE":"70"},"geometry":{"type":"Point","coordinates":[99.821146,13.5426076]}},{"type":"Feature","properties":{"h_code":"10751","name":"โรงพยาบาลสุไหงโก-ลก","address_th":"1 ถนน ทรายทอง 5 ตำบล สุไหงโก-ลก อำเภอ สุไหงโก-ลก นราธิวาส 96120 ไทย","coordinates":{"lat":6.0271753,"lng":101.9707548},"province":"นราธิวาส","PROV_CODE":"96"},"geometry":{"type":"Point","coordinates":[101.9707548,6.0271753]}},{"type":"Feature","properties":{"h_code":"11440","name":"โรงพยาบาลแว้ง","address_th":"4057 ตำบล แว้ง อำเภอ แว้ง นราธิวาส 96160 ไทย","coordinates":{"lat":5.942619,"lng":101.8869291},"province":"นราธิวาส","PROV_CODE":"96"},"geometry":{"type":"Point","coordinates":[101.8869291,5.942619]}},{"type":"Feature","properties":{"h_code":"22538","name":"แผนกพยาบาล กอง 11 ศูนย์รักษาความปลอดภัย กองบัญชาการทหารสูงสุด","address_th":"17/298 หมู่ที่ 4 แขวงอนุสาวรีย์ เขตบางเขน, เขตบางเขน กรุงเทพมหานคร 10220 ไทย","coordinates":{"lat":13.8667271,"lng":100.6094103},"province":"กรุงเทพมหานคร","PROV_CODE":"10"},"geometry":{"type":"Point","coordinates":[100.6094103,13.8667271]}},{"type":"Feature","properties":{"h_code":"41861","name":"โรงพยาบาลเอสโรงพยาบาลเฉพาะทางด้านกระดูกสันหลังและระบบประสาทขนาดเล็ก","address_th":"s spine and nerve ถนน ประดิษฐ์มนูธรรม แขวง วังทองหลาง เขตวังทองหลาง กรุงเทพมหานคร 10310 ไทย","coordinates":{"lat":13.7844143,"lng":100.6073669},"province":"กรุงเทพมหานคร","PROV_CODE":"10"},"geometry":{"type":"Point","coordinates":[100.6073669,13.7844143]}},{"type":"Feature","properties":{"h_code":"22339","name":"โรงพยาบาลเดอะซีเนียน์ สาขารัชดาภิเษก","address_th":"131 ถนน รัชดาภิเษก,แขวง จันทรเกษม เขต จตุจักร กรุงเทพมหานคร 10900 จันทรเกษม จตุจักร กรุงเทพมหานคร 10900 ไทย","coordinates":{"lat":13.8270757,"lng":100.5745017},"province":"กรุงเทพมหานคร","PROV_CODE":"10"},"geometry":{"type":"Point","coordinates":[100.5745017,13.8270757]}},{"type":"Feature","properties":{"h_code":"14639","name":"สำนักงานป้องกันควบคุมโรคที่ 3 จังหวัดนครสวรรค์","address_th":"ตำบลปากน้ำโพ อำเภอเมืองนครสวรรค์ นครสวรรค์ 60000 ไทย","coordinates":{"lat":15.7075915,"lng":100.1059326},"province":"นครสวรรค์","PROV_CODE":"60"},"geometry":{"type":"Point","coordinates":[100.1059326,15.7075915]}},{"type":"Feature","properties":{"h_code":"42170","name":"โรงพยาบาลทันตกรรม กรุงเทพ อินเตอร์เนชั่นแนล ขนาดเล็ก","address_th":"98 ซอย สุขุมวิท 2 แขวง คลองเตย เขตคลองเตย กรุงเทพมหานคร 10110 ไทย","coordinates":{"lat":13.738377,"lng":100.5516221},"province":"กรุงเทพมหานคร","PROV_CODE":"10"},"geometry":{"type":"Point","coordinates":[100.5516221,13.738377]}},{"type":"Feature","properties":{"h_code":"11531","name":"โรงพยาบาลการไฟฟ้านครหลวง","address_th":"809 1 ถนน สามเสน แขวง ถนนนครไชยศรี เขตดุสิต กรุงเทพมหานคร 10300 ไทย","coordinates":{"lat":13.7861816,"lng":100.5121102},"province":"กรุงเทพมหานคร","PROV_CODE":"10"},"geometry":{"type":"Point","coordinates":[100.5121102,13.7861816]}},{"type":"Feature","properties":{"h_code":"11387","name":"โรงพยาบาลจะนะ","address_th":"35 ถ.ราษฎร์บำรุง หมู่ 2 ตำบล บ้านนา อำเภอจะนะ สงขลา 90130 ไทย","coordinates":{"lat":6.9148459,"lng":100.7399367},"province":"สงขลา","PROV_CODE":"90"},"geometry":{"type":"Point","coordinates":[100.7399367,6.9148459]}},{"type":"Feature","properties":{"h_code":"11438","name":"โรงพยาบาลรือเสาะ","address_th":"ตำบล รือเสาะ รือเสาะ นราธิวาส 96150 ไทย","coordinates":{"lat":6.3768828,"lng":101.5102465},"province":"นราธิวาส","PROV_CODE":"96"},"geometry":{"type":"Point","coordinates":[101.5102465,6.3768828]}},{"type":"Feature","properties":{"h_code":"10821","name":"โรงพยาบาลพานทอง","address_th":"คลินิคพิเศษ 1/10 หมู่8 ตำบล พานทอง อำเภอพานทอง ชลบุรี 20160 ไทย","coordinates":{"lat":13.4692811,"lng":101.0986051},"province":"ชลบุรี","PROV_CODE":"20"},"geometry":{"type":"Point","coordinates":[101.0986051,13.4692811]}},{"type":"Feature","properties":{"h_code":"11396","name":"โรงพยาบาลนาหม่อม","address_th":"ตำบล พิจิตร อำเภอ นาหม่อม สงขลา 90310 ไทย","coordinates":{"lat":6.9847629,"lng":100.5857828},"province":"สงขลา","PROV_CODE":"90"},"geometry":{"type":"Point","coordinates":[100.5857828,6.9847629]}},{"type":"Feature","properties":{"h_code":"11345","name":"โรงพยาบาลลำทับ","address_th":"โรงพยาบาลลำทับ 94 หมู่ 5, ตำบลลำทับ อำเภอลำทับ จังหวัดกระบี่, 81120 ไทย","coordinates":{"lat":8.062186,"lng":99.3020084},"province":"กระบี่","PROV_CODE":"81"},"geometry":{"type":"Point","coordinates":[99.3020084,8.062186]}},{"type":"Feature","properties":{"h_code":"12243","name":"สถาบันพัฒนาสุขภาวะเขตเมือง","address_th":"18 ถ. พหลโยธิน แขวง อนุสาวรีย์ เขตบางเขน กรุงเทพมหานคร 10220 ไทย","coordinates":{"lat":13.872169,"lng":100.596622},"province":"กรุงเทพมหานคร","PROV_CODE":"10"},"geometry":{"type":"Point","coordinates":[100.596622,13.872169]}},{"type":"Feature","properties":{"h_code":"10820","name":"โรงพยาบาลวัดญาณสังวราราม","address_th":"33 หมู่ 11 อำเภอบางละมุง ชลบุรี 20150 ไทย","coordinates":{"lat":12.7918292,"lng":100.9566809},"province":"ชลบุรี","PROV_CODE":"20"},"geometry":{"type":"Point","coordinates":[100.9566809,12.7918292]}},{"type":"Feature","properties":{"h_code":"11391","name":"โรงพยาบาลสะบ้าย้อย","address_th":"ตำบล สะบ้าย้อย อำเภอ สะบ้าย้อย สงขลา 90210 ไทย","coordinates":{"lat":6.6238167,"lng":100.9484751},"province":"สงขลา","PROV_CODE":"90"},"geometry":{"type":"Point","coordinates":[100.9484751,6.6238167]}},{"type":"Feature","properties":{"h_code":"41511","name":"สถานพยาบาลมหาวิทยาลัยเกษตรศาสตร์","address_th":"50 ถนน งามวงศ์วาน แขวง ลาดยาว เขตจตุจักร กรุงเทพมหานคร 10900 ไทย","coordinates":{"lat":13.8467693,"lng":100.568367},"province":"กรุงเทพมหานคร","PROV_CODE":"10"},"geometry":{"type":"Point","coordinates":[100.568367,13.8467693]}},{"type":"Feature","properties":{"h_code":"11283","name":"โรงพยาบาลทองผาภูมิ","address_th":"จังหวัด กาญจนบุรี อำเภอทองผาภูมิ กาญจนบุรี 71180 ไทย","coordinates":{"lat":14.7515772,"lng":98.6255788},"province":"กาญจนบุรี","PROV_CODE":"71"},"geometry":{"type":"Point","coordinates":[98.6255788,14.7515772]}},{"type":"Feature","properties":{"h_code":"12248","name":"สถาบันพยาธิวิทยา","address_th":"2/2 สถาบันพยาธิวิทยา กรมการแพทย์ แขวง ทุ่งพญาไท เขตราชเทวี กรุงเทพมหานคร 10400 ไทย","coordinates":{"lat":13.7644167,"lng":100.5353278},"province":"กรุงเทพมหานคร","PROV_CODE":"10"},"geometry":{"type":"Point","coordinates":[100.5353278,13.7644167]}},{"type":"Feature","properties":{"h_code":"41522","name":"โรงพยาบาลคลองสามวา","address_th":"177 ถนน ไมตรีจิต แขวง สามวาตะวันออก เขตคลองสามวา กรุงเทพมหานคร 10510 ไทย","coordinates":{"lat":13.9102014,"lng":100.7537153},"province":"กรุงเทพมหานคร","PROV_CODE":"10"},"geometry":{"type":"Point","coordinates":[100.7537153,13.9102014]}},{"type":"Feature","properties":{"h_code":"11400","name":"โรงพยาบาลสิงหนคร","address_th":"ตำบล สทิงหม้อ อำเภอ สิงหนคร สงขลา 90280 ไทย","coordinates":{"lat":7.23455,"lng":100.529932},"province":"สงขลา","PROV_CODE":"90"},"geometry":{"type":"Point","coordinates":[100.529932,7.23455]}},{"type":"Feature","properties":{"h_code":"11667","name":"โรงพยาบาลประชาพัฒน์","address_th":"ถ. สุขสวัสดิ์ แขวง บางปะกอก เขตราษฎร์บูรณะ กรุงเทพมหานคร 10140 ไทย","coordinates":{"lat":13.6775756,"lng":100.498644},"province":"กรุงเทพมหานคร","PROV_CODE":"10"},"geometry":{"type":"Point","coordinates":[100.498644,13.6775756]}},{"type":"Feature","properties":{"h_code":"13765","name":"สำนักงานป้องกันควบคุมโรคที่6 จังหวัดชลบุรี","address_th":"ตำบล บางปลาสร้อย อำเภอเมืองชลบุรี ชลบุรี 20000 ไทย","coordinates":{"lat":13.3535193,"lng":100.9820273},"province":"ชลบุรี","PROV_CODE":"20"},"geometry":{"type":"Point","coordinates":[100.9820273,13.3535193]}},{"type":"Feature","properties":{"h_code":"15010","name":"โรงพยาบาลเจาะไอร้อง","address_th":"Unnamed Road ตำบล จวบ อำเภอ เจาะไอร้อง นราธิวาส 96130 ไทย","coordinates":{"lat":6.222307199999999,"lng":101.808916},"province":"นราธิวาส","PROV_CODE":"96"},"geometry":{"type":"Point","coordinates":[101.808916,6.222307199999999]}},{"type":"Feature","properties":{"h_code":"28006","name":"โรงพยาบาลเกาะจันทร์","address_th":"ตำบล เกาะจันทร์ อำเภอเกาะจันทร์ ชลบุรี 20240 ไทย","coordinates":{"lat":13.4246948,"lng":101.3351712},"province":"ชลบุรี","PROV_CODE":"20"},"geometry":{"type":"Point","coordinates":[101.3351712,13.4246948]}},{"type":"Feature","properties":{"h_code":"13818","name":"โรงพยาบาลจะแนะ","address_th":"ตำบล จะแนะ อำเภอ จะแนะ นราธิวาส 96220 ไทย","coordinates":{"lat":6.1307835,"lng":101.6969439},"province":"นราธิวาส","PROV_CODE":"96"},"geometry":{"type":"Point","coordinates":[101.6969439,6.1307835]}},{"type":"Feature","properties":{"h_code":"22155","name":"โรงพยาบาลครู","address_th":"128, 1 ถนน พิษณุโลก แขวง ดุสิต เขตดุสิต กรุงเทพมหานคร 10300 ไทย","coordinates":{"lat":13.7676728,"lng":100.5077596},"province":"กรุงเทพมหานคร","PROV_CODE":"10"},"geometry":{"type":"Point","coordinates":[100.5077596,13.7676728]}},{"type":"Feature","properties":{"h_code":"11346","name":"โรงพยาบาลเหนือคลอง","address_th":"ตำบล เหนือคลอง อำเภอเหนือคลอง กระบี่ 81130 ไทย","coordinates":{"lat":8.0569306,"lng":99.00052199999999},"province":"กระบี่","PROV_CODE":"81"},"geometry":{"type":"Point","coordinates":[99.00052199999999,8.0569306]}},{"type":"Feature","properties":{"h_code":"13783","name":"สำนักงานป้องกันควบคุมโรคที่ 1จังหวัดเชียงใหม่","address_th":"447 ถนน เชียงใหม่-ลำพูน ตำบลวัดเกต อำเภอเมืองเชียงใหม่ เชียงใหม่ 50000 ไทย","coordinates":{"lat":18.7652721,"lng":99.00584959999999},"province":"เชียงใหม่","PROV_CODE":"50"},"geometry":{"type":"Point","coordinates":[99.00584959999999,18.7652721]}},{"type":"Feature","properties":{"h_code":"11205","name":"โรงพยาบาลแม่สะเรียง","address_th":"เลขที่74 ทางหลวงหมายเลข 108 ตำบล แม่สะเรียง อำเภอแม่สะเรียง แม่ฮ่องสอน 58110 ไทย","coordinates":{"lat":18.1624565,"lng":97.93993479999999},"province":"แม่ฮ่องสอน","PROV_CODE":"58"},"geometry":{"type":"Point","coordinates":[97.93993479999999,18.1624565]}},{"type":"Feature","properties":{"h_code":"11592","name":"โรงพยาบาลบางนา1","address_th":"1302 ถ. เทพรัตน แขวง บางนาใต้ เขตบางนา กรุงเทพมหานคร 10260 ไทย","coordinates":{"lat":13.6668249,"lng":100.6355092},"province":"กรุงเทพมหานคร","PROV_CODE":"10"},"geometry":{"type":"Point","coordinates":[100.6355092,13.6668249]}},{"type":"Feature","properties":{"h_code":"40886","name":"สำนักงานป้องกันควบคุมโรคที่ 8 จังหวัดอุดรธานี","address_th":"รหัสไปรษณีย์ หมู่บ้าน เลขที่ 591 หมู่ที่ 12, ตำบล สามพร้าว อำเภอเมืองอุดรธานี อุดรธานี 41000 ไทย","coordinates":{"lat":17.4490009,"lng":102.9051393},"province":"อุดรธานี","PROV_CODE":"41"},"geometry":{"type":"Point","coordinates":[102.9051393,17.4490009]}},{"type":"Feature","properties":{"h_code":"11436","name":"โรงพยาบาลบาเจาะ","address_th":"315 ถ.เพชรเกษม ตำบล บาเจาะ อำเภอ บาเจาะ นราธิวาส 96170 ไทย","coordinates":{"lat":6.503324900000001,"lng":101.6600974},"province":"นราธิวาส","PROV_CODE":"96"},"geometry":{"type":"Point","coordinates":[101.6600974,6.503324900000001]}},{"type":"Feature","properties":{"h_code":"10818","name":"โรงพยาบาลหนองใหญ่","address_th":"ห้างสูง หนองใหญ่ ชลบุรี ไทย หนองใหญ่ อำเภอหนองใหญ่ ชลบุรี 20190 ไทย","coordinates":{"lat":13.15718,"lng":101.363615},"province":"ชลบุรี","PROV_CODE":"20"},"geometry":{"type":"Point","coordinates":[101.363615,13.15718]}},{"type":"Feature","properties":{"h_code":"11441","name":"โรงพยาบาลสุคิริน","address_th":"58 หมู่ 6 ตำบลมาโมง อำเภอสุคิริน จังหวัดนราธิวาส ตำบล เกียร์ อำเภอ สุคิริน นราธิวาส 96190 ไทย","coordinates":{"lat":5.942238100000001,"lng":101.7774915},"province":"นราธิวาส","PROV_CODE":"96"},"geometry":{"type":"Point","coordinates":[101.7774915,5.942238100000001]}},{"type":"Feature","properties":{"h_code":"11445","name":"โรงพยาบาลสมเด็จพระยุพราชกระนวน","address_th":"1 หมู่ 11 ตำบลหนองโก ตำบล หนองโก อำเภอ กระนวน ขอนแก่น 40170 ไทย","coordinates":{"lat":16.706206,"lng":103.085109},"province":"ขอนแก่น","PROV_CODE":"40"},"geometry":{"type":"Point","coordinates":[103.085109,16.706206]}},{"type":"Feature","properties":{"h_code":"11399","name":"โรงพยาบาลบางกล่ำ","address_th":"117 ตำบล บางกล่ำ อำเภอบางกล่ำ สงขลา 90110 ไทย","coordinates":{"lat":7.092813199999999,"lng":100.4091194},"province":"สงขลา","PROV_CODE":"90"},"geometry":{"type":"Point","coordinates":[100.4091194,7.092813199999999]}},{"type":"Feature","properties":{"h_code":"11437","name":"โรงพยาบาลระแงะ","address_th":"หมู่ที่ 1 86 ตำบล ตันหยงมัส อำเภอ ระแงะ นราธิวาส ไทย","coordinates":{"lat":6.2972606,"lng":101.7272288},"province":"นราธิวาส","PROV_CODE":"96"},"geometry":{"type":"Point","coordinates":[101.7272288,6.2972606]}},{"type":"Feature","properties":{"h_code":"11340","name":"โรงพยาบาลเขาพนม","address_th":"71 หมู่ที่ 9 ตำบล เขาพนม อำเภอ เขาพนม กระบี่ 81140 ไทย","coordinates":{"lat":8.2573407,"lng":99.0458534},"province":"กระบี่","PROV_CODE":"81"},"geometry":{"type":"Point","coordinates":[99.0458534,8.2573407]}},{"type":"Feature","properties":{"h_code":"11516","name":"โรงพยาบาลค่ายวชิรปราการ","address_th":"337 ตำบล ไม้งาม อำเภอเมืองตาก ตาก 63000 ไทย","coordinates":{"lat":16.8817612,"lng":99.138431},"province":"ตาก","PROV_CODE":"63"},"geometry":{"type":"Point","coordinates":[99.138431,16.8817612]}},{"type":"Feature","properties":{"h_code":"11668","name":"โรงพยาบาลสุขสวัสดิ์","address_th":"ถ. สุขสวัสดิ์ แขวง บางปะกอก เขตราษฎร์บูรณะ กรุงเทพมหานคร 10140 ไทย","coordinates":{"lat":13.676112,"lng":100.5011041},"province":"กรุงเทพมหานคร","PROV_CODE":"10"},"geometry":{"type":"Point","coordinates":[100.5011041,13.676112]}},{"type":"Feature","properties":{"h_code":"11390","name":"โรงพยาบาลเทพา","address_th":"207 หมู่ที่ 5 ถนน ลำไพล-เทพา ตำบล เทพา อำเภอ เทพา สงขลา 90150 ไทย","coordinates":{"lat":6.8042975,"lng":100.9542166},"province":"สงขลา","PROV_CODE":"90"},"geometry":{"type":"Point","coordinates":[100.9542166,6.8042975]}},{"type":"Feature","properties":{"h_code":"23839","name":"โรงพยาบาลเทพรัตน์นครราชสีมา","address_th":"345 ตำบล โคกกรวด อำเภอเมืองนครราชสีมา นครราชสีมา 30280 ไทย","coordinates":{"lat":14.9247409,"lng":101.9652755},"province":"นครราชสีมา","PROV_CODE":"30"},"geometry":{"type":"Point","coordinates":[101.9652755,14.9247409]}},{"type":"Feature","properties":{"h_code":"12463","name":"สถานีกาชาดที่11 วิเศษนิยม","address_th":"605 ถ. เพชรเกษม แขวง บางหว้า เขตภาษีเจริญ กรุงเทพมหานคร 10160 ไทย","coordinates":{"lat":13.7125384,"lng":100.4355934},"province":"กรุงเทพมหานคร","PROV_CODE":"10"},