{"type":"FeatureCollection","name":"th hospital db","features":[{"type":"Feature","properties":{"h_name":"สถาบันโรคผิวหนัง","address_th":"420/7 ถนน ราชวิถี แขวง ทุ่งพญาไท เขตราชเทวี กรุงเทพมหานคร 10400 ไทย","h_code":"12249","province":"กรุงเทพมหานคร"},"id":"12249","geometry":{"type":"Point","coordinates":[100.5352413,13.7657815]}},{"type":"Feature","properties":{"h_name":"สำนักอนามัยกรุงเทพมหานคร","address_th":"ศาลาว่าการกทม.2 ถ.มิตรไมตรี เขตดินแดง กรุงเทพมหานคร 10400 ไทย","h_code":"12499","province":"กรุงเทพมหานคร"},"id":"12499","geometry":{"type":"Point","coordinates":[100.553956,13.770731]}},{"type":"Feature","properties":{"h_name":"โรงพยาบาลจุฬาภรณ์","address_th":"100 ซอย วิภาวดีรังสิต แขวง ทุ่งสองห้อง เขต หลักสี่ กรุงเทพมหานคร 10210 ไทย","h_code":"22737","province":"กรุงเทพมหานคร"},"id":"22737","geometry":{"type":"Point","coordinates":[100.5685177,13.8781489]}},{"type":"Feature","properties":{"h_name":"ศูนย์บริการสุขภาพแห่งจุฬาลงกรณ์มหาวิทยาลัย","address_th":"Floor 2 Chamchuri 9 Phayathai Road Wang Mai 10330 Pathumwan Bangkok แขวง วังใหม่ เขตปทุมวัน กรุงเทพมหานคร 10330 ไทย","h_code":"28892","province":"กรุงเทพมหานคร"},"id":"28892","geometry":{"type":"Point","coordinates":[100.5254198,13.7360276]}},{"type":"Feature","properties":{"h_name":"โรงพยาบาลจุฬาลงกรณ์สภากาชาดไทย","address_th":"13 ถนนพระรามที่ ๔ แขวง ปทุมวัน เขตปทุมวัน กรุงเทพมหานคร 10330 ไทย","h_code":"13756","province":"กรุงเทพมหานคร"},"id":"13756","geometry":{"type":"Point","coordinates":[100.5368348,13.7323209]}},{"type":"Feature","properties":{"h_name":"โรงพยาบาลศิริราช","address_th":"2 ถนน วังหลัง แขวงศิริราช เขตบางกอกน้อย กรุงเทพมหานคร 10700 ไทย","h_code":"13814","province":"กรุงเทพมหานคร"},"id":"13814","geometry":{"type":"Point","coordinates":[100.4859321,13.7595933]}},{"type":"Feature","properties":{"h_name":"โรงพยาบาลปิยะเวท","address_th":"998 ถนน ริมคลองสามเสน แขวง บางกะปิ เขตห้วยขวาง กรุงเทพมหานคร 10310 ไทย","h_code":"11632","province":"กรุงเทพมหานคร"},"id":"11632","geometry":{"type":"Point","coordinates":[100.5800847,13.7533822]}},{"type":"Feature","properties":{"h_name":"โรงพยาบาลรามาธิบดี มหาวิทยาลัยมหิดล","address_th":"270 ถนน พระราม6, แขวง ทุ่งพญาไท เขตราชเทวี กรุงเทพมหานคร 10400 ไทย","h_code":"13781","province":"กรุงเทพมหานคร"},"id":"13781","geometry":{"type":"Point","coordinates":[100.5267942,13.7663141]}},{"type":"Feature","properties":{"h_name":"โรงพยาบาลบางปะกอก 8 โรงพยาบาลทั่วไปขนาดใหญ่","address_th":"1055 ถ. เอกชัย แขวง บางบอน เขตบางบอน กรุงเทพมหานคร 10150 ไทย","h_code":"15147","province":"กรุงเทพมหานคร"},"id":"15147","geometry":{"type":"Point","coordinates":[100.4068731,13.6630359]}},{"type":"Feature","properties":{"h_name":"โรงพยาบาลนพรัตนราชธานี","address_th":"679 ถ. รามอินทรา แขวง คันนายาว เขตคันนายาว กรุงเทพมหานคร 10230 ไทย","h_code":"11470","province":"กรุงเทพมหานคร"},"id":"11470","geometry":{"type":"Point","coordinates":[100.6880292,13.8174056]}},{"type":"Feature","properties":{"h_name":"โรงพยาบาลตำรวจ","address_th":"492/1 ถนน พระรามที่ ๑ แขวง ปทุมวัน เขตปทุมวัน กรุงเทพมหานคร 10330 ไทย","h_code":"14173","province":"กรุงเทพมหานคร"},"id":"14173","geometry":{"type":"Point","coordinates":[100.5383973,13.7433902]}},{"type":"Feature","properties":{"h_name":"นวมินทร์ 9โรงพยาบาลทั่วไปขนาดใหญ่","address_th":"96 ถนน สีหบุรานุกิจ แขวง มีนบุรี เขตมีนบุรี กรุงเทพมหานคร 10510 ไทย","h_code":"23781","province":"กรุงเทพมหานคร"},"id":"23781","geometry":{"type":"Point","coordinates":[100.7239936,13.8112772]}},{"type":"Feature","properties":{"h_name":"คณะแพทย์ศาสตร์วชิรพยาบาล มหาวิทยาลัยกรุงเทพมหานคร","address_th":"681 ถนน สามเสน แขวง วชิรพยาบาล เขตดุสิต กรุงเทพมหานคร 10300 ไทย","h_code":"11535","province":"กรุงเทพมหานคร"},"id":"11535","geometry":{"type":"Point","coordinates":[100.5088272,13.7803039]}},{"type":"Feature","properties":{"h_name":"โรงพยาบาลกรุงเทพ","address_th":"2 ซ. เพชรบุรี 47 แยก 10 แขวง บางกะปิ เขตห้วยขวาง กรุงเทพมหานคร 10310 ไทย","h_code":"11630","province":"กรุงเทพมหานคร"},"id":"11630","geometry":{"type":"Point","coordinates":[100.5832257,13.7487515]}},{"type":"Feature","properties":{"h_name":"โรงพยาบาลพระมงกุฎเกล้า","address_th":"315 ถนน ราชวิถี แขวง ทุ่งพญาไท เขตราชเทวี กรุงเทพมหานคร 10400 ไทย","h_code":"11481","province":"กรุงเทพมหานคร"},"id":"11481","geometry":{"type":"Point","coordinates":[100.5341754,13.7673969]}},{"type":"Feature","properties":{"h_name":"โรงพยาบาลกลาง","address_th":"514 ถ. หลวง แขวง ป้อมปราบ เขตป้อมปราบศัตรูพ่าย กรุงเทพมหานคร 10100 ไทย","h_code":"11537","province":"กรุงเทพมหานคร"},"id":"11537","geometry":{"type":"Point","coordinates":[100.5092822,13.7465459]}},{"type":"Feature","properties":{"h_name":"โรงพยาบาลกล้วยน้ำไท","address_th":"แขวง พระโขนง เขตคลองเตย กรุงเทพมหานคร 10110 ไทย","h_code":"11583","province":"กรุงเทพมหานคร"},"id":"11583","geometry":{"type":"Point","coordinates":[100.5889976,13.7128678]}},{"type":"Feature","properties":{"h_name":"โรงพยาบาลบางปะกอก 9 อินเตอร์เนชั่นแนล","address_th":"362 ถ. พระราม ๒ แขวง บางมด เขตจอมทอง กรุงเทพมหานคร 10150 ไทย","h_code":"21339","province":"กรุงเทพมหานคร"},"id":"21339","geometry":{"type":"Point","coordinates":[100.4745221,13.6818817]}},{"type":"Feature","properties":{"h_name":"โรงพยาบาลวิมุตโรงพยาบาลทั่วไปขนาดใหญ่","address_th":"500 ถ. พหลโยธิน แขวง สามเสนใน เขตพญาไท กรุงเทพมหานคร 10400 ไทย","h_code":"42167","province":"กรุงเทพมหานคร"},"id":"42167","geometry":{"type":"Point","coordinates":[100.5483033,13.788629]}},{"type":"Feature","properties":{"h_name":"โรงพยาบาลเมดพาร์ค โรงพยาบาลทั่วไปขนาดใหญ่","address_th":"3333 ถนนพระรามที่ ๔ แขวง คลองเตย เขตคลองเตย กรุงเทพมหานคร 10110 ไทย","h_code":"41901","province":"กรุงเทพมหานคร"},"id":"41901","geometry":{"type":"Point","coordinates":[100.5562616,13.7217821]}},{"type":"Feature","properties":{"h_name":"โรงพยาบาลทั่วไปขนาดใหญ่ศิครินทร์","address_th":"976 ถนน ลาซาล แขวง บางนาใต้ เขตบางนา กรุงเทพมหานคร 10260 ไทย","h_code":"11582","province":"กรุงเทพมหานคร"},"id":"11582","geometry":{"type":"Point","coordinates":[100.6463827,13.6549267]}},{"type":"Feature","properties":{"h_name":"คลินิกเวชกรรม สจล","address_th":"3 ถนน ฉลองกรุง แขวง ลำปลาทิว เขตลาดกระบัง กรุงเทพมหานคร 10520 ไทย","h_code":"41371","province":"กรุงเทพมหานคร"},"id":"41371","geometry":{"type":"Point","coordinates":[100.7774138,13.7295231]}},{"type":"Feature","properties":{"h_name":"โรงพยาบาลเปาโลเมโมเรียล","address_th":"670, 1 ถ. พหลโยธิน แขวง สามเสนใน เขตพญาไท กรุงเทพมหานคร 10400 ไทย","h_code":"11607","province":"กรุงเทพมหานคร"},"id":"11607","geometry":{"type":"Point","coordinates":[100.5501013,13.7921159]}},{"type":"Feature","properties":{"h_name":"โรงพยาบาลวิภาราม","address_th":"2677 ถนนพัฒนาการ แขวง พัฒนาการ แขวงสวนหลวง กรุงเทพมหานคร 10250 ไทย","h_code":"14577","province":"กรุงเทพมหานคร"},"id":"14577","geometry":{"type":"Point","coordinates":[100.6455266,13.734706]}},{"type":"Feature","properties":{"h_name":"โรงพยาบาลราชวิถี","address_th":"2 ถนน พญาไท แขวง ทุ่งพญาไท เขตราชเทวี กรุงเทพมหานคร 10400 ไทย","h_code":"11472","province":"กรุงเทพมหานคร"},"id":"11472","geometry":{"type":"Point","coordinates":[100.5358415,13.7646491]}},{"type":"Feature","properties":{"h_name":"โรงพยาบาลสถาบันโรคไตภูมิราชนครินทร์","address_th":"8/99 ถนน พญาไท แขวง ทุ่งพญาไท เขตราชเทวี กรุงเทพมหานคร 10400 ไทย","h_code":"24923","province":"กรุงเทพมหานคร"},"id":"24923","geometry":{"type":"Point","coordinates":[100.5346235,13.7599533]}},{"type":"Feature","properties":{"h_name":"โรงพยาบาลภูมิพลอดุลยเดช","address_th":"171 ถ. พหลโยธิน แขวง สายไหม เขตสายไหม กรุงเทพมหานคร 10220 ไทย","h_code":"11482","province":"กรุงเทพมหานคร"},"id":"11482","geometry":{"type":"Point","coordinates":[100.6177364,13.9091142]}},{"type":"Feature","properties":{"h_name":"โรงพยาบาลตากสิน","address_th":"543 ถนน สมเด็จเจ้าพระยา แขวง คลองสาน เขตคลองสาน กรุงเทพมหานคร 10600 ไทย","h_code":"11539","province":"กรุงเทพมหานคร"},"id":"11539","geometry":{"type":"Point","coordinates":[100.5086438,13.7304755]}},{"type":"Feature","properties":{"h_name":"โรงพยาบาลเปาโลเมโมเรียล โชคชัย 4","address_th":"15/10 ซอยลาดพร้าว 53 (ซอยโชคชัย 4) ถนนลาดพร้าว แขวงลาดพร้าว เขตลาดพร้าว กรุงเทพมหานคร กรุงเทพฯ 10230 ไทย","h_code":"11721","province":"กรุงเทพมหานคร"},"id":"11721","geometry":{"type":"Point","coordinates":[100.5916793,13.8244309]}},{"type":"Feature","properties":{"h_name":"โรงพยาบาลสงฆ์","address_th":"445 ถ. ศรีอยุธยา แขวง ทุ่งพญาไท เขตราชเทวี กรุงเทพมหานคร 10400 ไทย","h_code":"11471","province":"กรุงเทพมหานคร"},"id":"11471","geometry":{"type":"Point","coordinates":[100.5269917,13.7617091]}},{"type":"Feature","properties":{"h_name":"สำนักงานแพทย์ สำนักงานสนับสนุน สำนักงานปลัดการะทรวงกลาโหม","address_th":"ถนน หลักเมือง แขวงพระบรมมหาราชวัง เขตพระนคร กรุงเทพมหานคร 10200 ไทย","h_code":"29208","province":"กรุงเทพมหานคร"},"id":"29208","geometry":{"type":"Point","coordinates":[100.4945883,13.7524151]}},{"type":"Feature","properties":{"h_name":"โรงพยาบาลพญาไท 3","address_th":"111 ถ. เพชรเกษม แขวง ปากคลองภาษีเจริญ เขตภาษีเจริญ กรุงเทพมหานคร 10160 ไทย","h_code":"14574","province":"กรุงเทพมหานคร"},"id":"14574","geometry":{"type":"Point","coordinates":[100.4640754,13.722973]}},{"type":"Feature","properties":{"h_name":"โรงพยาบาลลาดพร้าว","address_th":"2699 ถ. ลาดพร้าว แขวง คลองเจ้าคุณสิงห์ เขตวังทองหลาง กรุงเทพมหานคร 10310 ไทย","h_code":"11729","province":"กรุงเทพมหานคร"},"id":"11729","geometry":{"type":"Point","coordinates":[100.6237531,13.7785034]}},{"type":"Feature","properties":{"h_name":"โรงพยาบาลราชพิพัฒน์","address_th":"18 ถนน พุทธมณฑลสาย ๓ แขวง บางไผ่ เขตบางแค กรุงเทพมหานคร 10160 ไทย","h_code":"14641","province":"กรุงเทพมหานคร"},"id":"14641","geometry":{"type":"Point","coordinates":[100.3667948,13.7309561]}},{"type":"Feature","properties":{"h_name":"โรงพยาบาลเจริญกรุงประชารักษ์","address_th":"8 ถนน เจริญกรุง แขวง บางคอแหลม เขตบางคอแหลม กรุงเทพมหานคร 10120 ไทย","h_code":"11541","province":"กรุงเทพมหานคร"},"id":"11541","geometry":{"type":"Point","coordinates":[100.4946477,13.6944193]}},{"type":"Feature","properties":{"h_name":"โรงพยาบาลสมิติเวช","address_th":"ศรีนครินทร์ 6 แขวง สวนหลวง แขวงสวนหลวง กรุงเทพมหานคร 10250 ประเทศไทย","h_code":"11811","province":"กรุงเทพมหานคร"},"id":"11811","geometry":{"type":"Point","coordinates":[100.6402484,13.747216]}},{"type":"Feature","properties":{"h_name":"โรงพยาบาลผู้สูงอายุบางขุนเทียน","address_th":"1075 1 ถนนบางขุนเทียน-ชายทะเล แขวง ท่าข้าม เขตบางขุนเทียน กรุงเทพมหานคร 10150 ไทย","h_code":"25060","province":"กรุงเทพมหานคร"},"id":"25060","geometry":{"type":"Point","coordinates":[100.4228872,13.572607]}},{"type":"Feature","properties":{"h_name":"โรงพยาบาลบำรุงราษฎร์","address_th":"33 ซอย สุขุมวิท 3 แขวง คลองเตยเหนือ เขตวัฒนา กรุงเทพมหานคร 10110 ไทย","h_code":"11699","province":"กรุงเทพมหานคร"},"id":"11699","geometry":{"type":"Point","coordinates":[100.5522992,13.746316]}},{"type":"Feature","properties":{"h_name":"โรงพยาบาลเลิดสิน","address_th":"190 ถนน สีลม แขวง สีลม เขตบางรัก กรุงเทพมหานคร 10500 ไทย","h_code":"11469","province":"กรุงเทพมหานคร"},"id":"11469","geometry":{"type":"Point","coordinates":[100.5173902,13.7221964]}},{"type":"Feature","properties":{"h_name":"โรงพยาบาลศิริราช ปิยมหาราชการุณย์","address_th":"2 ถนน วังหลัง แขวงศิริราช เขตบางกอกน้อย กรุงเทพมหานคร 10700 ไทย","h_code":"24748","province":"กรุงเทพมหานคร"},"id":"24748","geometry":{"type":"Point","coordinates":[100.4859321,13.7595933]}},{"type":"Feature","properties":{"h_name":"โรงพยาบาลคณะทันตแพทย์ศาสตร์ จุฬาลงกรณ์มหาวิทยาลัย","address_th":"ถ. อังรีดูนังต์ แขวง ปทุมวัน เขตปทุมวัน กรุงเทพมหานคร 10330 ไทย","h_code":"15199","province":"กรุงเทพมหานคร"},"id":"15199","geometry":{"type":"Point","coordinates":[100.5349815,13.7432568]}},{"type":"Feature","properties":{"h_name":"โรงพยาบาลพญาไท 2","address_th":"943 ถ. พหลโยธิน แขวง สามเสนใน เขตพญาไท กรุงเทพมหานคร 10400 ไทย","h_code":"11609","province":"กรุงเทพมหานคร"},"id":"11609","geometry":{"type":"Point","coordinates":[100.5404865,13.770237]}},{"type":"Feature","properties":{"h_name":"โรงพยาบาลพระราม 9","address_th":"ซอย โรงพยาบาลพระราม 9 เขตห้วยขวาง กรุงเทพมหานคร 10310 ประเทศไทย","h_code":"11628","province":"กรุงเทพมหานคร"},"id":"11628","geometry":{"type":"Point","coordinates":[100.5705369,13.7537961]}},{"type":"Feature","properties":{"h_name":"โรงพยาบาลสมเด็จพระปิ่นเกล้า","address_th":"504 ถนน สมเด็จพระเจ้าตากสิน แขวง บุคคโล เขตธนบุรี กรุงเทพมหานคร 10600 ไทย","h_code":"11478","province":"กรุงเทพมหานคร"},"id":"11478","geometry":{"type":"Point","coordinates":[100.4870822,13.7099637]}},{"type":"Feature","properties":{"h_name":"โรงพยาบาลทั่วไปขนาดใหญ่ธนบุรี","address_th":"369 ถนน รัชดาภิเษก แขวง บุคคโล เขตธนบุรี กรุงเทพมหานคร 10600 ไทย","h_code":"11645","province":"กรุงเทพมหานคร"},"id":"11645","geometry":{"type":"Point","coordinates":[100.4807468,13.7087429]}},{"type":"Feature","properties":{"h_name":"ทัณฑสถานโรงพยาบาลราชทัณฑ์","address_th":"33/2 ถนน งามวงศ์วาน แขวง ลาดยาว เขตจตุจักร กรุงเทพมหานคร 10900 ไทย","h_code":"11468","province":"กรุงเทพมหานคร"},"id":"11468","geometry":{"type":"Point","coordinates":[100.5540982,13.8511678]}},{"type":"Feature","properties":{"h_name":"สถาบันราชานุกูล","address_th":"ดินแดง กรุงเทพมหานคร 10400 ไทย","h_code":"12246","province":"กรุงเทพมหานคร"},"id":"12246","geometry":{"type":"Point","coordinates":[100.5543068,13.7610947]}},{"type":"Feature","properties":{"h_name":"โรงพยาบาลสิรินธร","address_th":"ซอย โรงพยาบาลสิรินธร แขวง ประเวศ เขต ประเวศ กรุงเทพมหานคร 10250 ประเทศไทย","h_code":"15049","province":"กรุงเทพมหานคร"},"id":"15049","geometry":{"type":"Point","coordinates":[100.7071465,13.7200806]}},{"type":"Feature","properties":{"h_name":"โรงพยาบาลหลวงพ่อทวีศักดิ์ฯ ชุตินธโร อุทิศ","address_th":"6 ถนน หนองแขม-วัดศรีนวล 1 แขวงหนองแขม เขตหนองแขม กรุงเทพมหานคร 10160 ไทย","h_code":"11540","province":"กรุงเทพมหานคร"},"id":"11540","geometry":{"type":"Point","coordinates":[100.3452855,13.6563089]}},{"type":"Feature","properties":{"h_name":"โรงพยาบาลมิชชั่น","address_th":"430 ถนน พิษณุโลก แขวง สี่แยกมหานาค เขตดุสิต กรุงเทพมหานคร 10300 ไทย","h_code":"11543","province":"กรุงเทพมหานคร"},"id":"11543","geometry":{"type":"Point","coordinates":[100.5190735,13.7574827]}},{"type":"Feature","properties":{"h_name":"โรงพยาบาลบางนา1","address_th":"1302 ถ. เทพรัตน แขวง บางนาใต้ เขตบางนา กรุงเทพมหานคร 10260 ไทย","h_code":"11592","province":"กรุงเทพมหานคร"},"id":"11592","geometry":{"type":"Point","coordinates":[100.6355092,13.6668249]}},{"type":"Feature","properties":{"h_name":"โรงพยาบาลทหารผ่านศึก","address_th":"123 ถนน วิภาวดีรังสิต แขวง สามเสนใน เขตพญาไท กรุงเทพมหานคร 10400 ไทย","h_code":"11477","province":"กรุงเทพมหานคร"},"id":"11477","geometry":{"type":"Point","coordinates":[100.5518272,13.7721515]}},{"type":"Feature","properties":{"h_name":"โรงพยาบาลวิภาวดี","address_th":"51, 3 ถนน งามวงศ์วาน แขวง ลาดยาว เขตจตุจักร กรุงเทพมหานคร 10900 ไทย","h_code":"11691","province":"กรุงเทพมหานคร"},"id":"11691","geometry":{"type":"Point","coordinates":[100.5621239,13.8462543]}},{"type":"Feature","properties":{"h_name":"โรงพยาบาลมงกุฏวัฒนะ","address_th":"34, 40 ถ. แจ้งวัฒนะ แขวง ทุ่งสองห้อง เขต หลักสี่ กรุงเทพมหานคร 10210 ไทย","h_code":"11722","province":"กรุงเทพมหานคร"},"id":"11722","geometry":{"type":"Point","coordinates":[100.5616275,13.8939984]}},{"type":"Feature","properties":{"h_name":"โรงพยาบาลมเหสักข์","address_th":"46, 7 ถนน มเหสักข์ แขวง สุริยวงศ์ เขตบางรัก กรุงเทพมหานคร 10500 ไทย","h_code":"11552","province":"กรุงเทพมหานคร"},"id":"11552","geometry":{"type":"Point","coordinates":[100.5196117,13.7253419]}},{"type":"Feature","properties":{"h_name":"โรงพยาบาลเวชการุณย์รัศมิ์","address_th":"38, 2 ถนน เลียบวารี แขวง กระทุ่มราย เขต หนองจอก กรุงเทพมหานคร 10530 ไทย","h_code":"11536","province":"กรุงเทพมหานคร"},"id":"11536","geometry":{"type":"Point","coordinates":[100.8590043,13.8567013]}},{"type":"Feature","properties":{"h_name":"โรงพยาบาลบางปะกอก 1","address_th":"2 ซอย สุขสวัสดิ์ 25/1 แขวง บางปะกอก เขตราษฎร์บูรณะ กรุงเทพมหานคร 10140 ไทย","h_code":"11670","province":"กรุงเทพมหานคร"},"id":"11670","geometry":{"type":"Point","coordinates":[100.498929,13.6789235]}},{"type":"Feature","properties":{"h_name":"โรงพยาบาลเจ้าพระยา","address_th":"113/44 ถนน บรมราชชนนี แขวง อรุณอมรินทร์ เขตบางกอกน้อย กรุงเทพมหานคร 10700 ไทย","h_code":"11644","province":"กรุงเทพมหานคร"},"id":"11644","geometry":{"type":"Point","coordinates":[100.4706051,13.7804403]}},{"type":"Feature","properties":{"h_name":"โรงพยาบาลแพทย์ปัญญา","address_th":"124, 126 ซอย รามคำแหง 4 แขวง สวนหลวง แขวงสวนหลวง กรุงเทพมหานคร 10250 ไทย","h_code":"11703","province":"กรุงเทพมหานคร"},"id":"11703","geometry":{"type":"Point","coordinates":[100.6074312,13.7438941]}},{"type":"Feature","properties":{"h_name":"โรงพยาบาลทั่วไปขนาดใหญ่ พีเอ็มจี","address_th":"280 ถนน พระรามสอง แขวง แสมดำ เขตบางขุนเทียน กรุงเทพมหานคร 10150 ไทย","h_code":"11647","province":"กรุงเทพมหานคร"},"id":"11647","geometry":{"type":"Point","coordinates":[100.4220017,13.6516984]}},{"type":"Feature","properties":{"h_name":"การส่งเสริมกีฬาแห่งประเทศไทย","address_th":"286 ถนน รามคำแหง แขวง หัวหมาก เขตบางกะปิ กรุงเทพมหานคร 10240 ไทย","h_code":"12477","province":"กรุงเทพมหานคร"},"id":"12477","geometry":{"type":"Point","coordinates":[100.626491,13.7592209]}},{"type":"Feature","properties":{"h_name":"โรงพยาบาลทั่วไปขนาดใหญ่เปาโล เกษตร","address_th":"2012 5-7 ซอย พหลโยธิน 34 แขวง เสนานิคม เขตจตุจักร กรุงเทพมหานคร 10900 ไทย","h_code":"11560","province":"กรุงเทพมหานคร"},"id":"11560","geometry":{"type":"Point","coordinates":[100.5741868,13.8354167]}},{"type":"Feature","properties":{"h_name":"โรงพยาบาลเซนต์หลุยส์","address_th":"27 ถ. สาทรใต้ แขวง ยานนาวา เขต สาทร กรุงเทพมหานคร 10120 ไทย","h_code":"11600","province":"กรุงเทพมหานคร"},"id":"11600","geometry":{"type":"Point","coordinates":[100.5252044,13.7191124]}},{"type":"Feature","properties":{"h_name":"โรงพยาบาลหัวเฉียวโรงพยาบาลทั่วไปขนาดใหญ่","address_th":"665 ถ. บำรุงเมือง แขวง คลองมหานาค เขตป้อมปราบศัตรูพ่าย กรุงเทพมหานคร 10100 ไทย","h_code":"11750","province":"กรุงเทพมหานคร"},"id":"11750","geometry":{"type":"Point","coordinates":[100.5154121,13.7500823]}},{"type":"Feature","properties":{"h_name":"สำนักแพทย์ การท่าอากาศยานไทยจำกัด","address_th":"222, แขวงสีกัน เขตดอนเมือง กรุงเทพมหานคร, ถ.วิภาวดีรังสิต, 10210 10210 ไทย","h_code":"12488","province":"กรุงเทพมหานคร"},"id":"12488","geometry":{"type":"Point","coordinates":[100.6026354,13.9218948]}},{"type":"Feature","properties":{"h_name":"โรงพยาบาลสมิติเวช ศรีนครินทร์โรงพยาบาลทั่วไปขนาดใหญ่","address_th":"488 ถนน ศรีนครินทร์ แขวง สวนหลวง แขวงสวนหลวง กรุงเทพมหานคร 10250 ไทย","h_code":"11704","province":"กรุงเทพมหานคร"},"id":"11704","geometry":{"type":"Point","coordinates":[100.6384801,13.7486975]}},{"type":"Feature","properties":{"h_name":"โรงพยาบาลลาดกระบังกรุงเทพมหานคร","address_th":"2 ซอย ลาดกระบัง 15 แขวง ลาดกระบัง เขตลาดกระบัง กรุงเทพมหานคร 10520 ไทย","h_code":"11538","province":"กรุงเทพมหานคร"},"id":"11538","geometry":{"type":"Point","coordinates":[100.7841349,13.7224653]}},{"type":"Feature","properties":{"h_name":"โรงพยาบาลเกษมราษฎร์ บางแค","address_th":"586, 588 ถ. เพชรเกษม แขวง บางแคเหนือ เขตบางแค กรุงเทพมหานคร 10160 ไทย","h_code":"11656","province":"กรุงเทพมหานคร"},"id":"11656","geometry":{"type":"Point","coordinates":[100.3986326,13.710611]}},{"type":"Feature","properties":{"h_name":"โรงพยาบาลสินแพทย์","address_th":"ซอย รามอินทรา 52/1 แขวง รามอินทรา เขตคันนายาว กรุงเทพมหานคร 10230 ประเทศไทย","h_code":"15260","province":"กรุงเทพมหานคร"},"id":"15260","geometry":{"type":"Point","coordinates":[100.6638934,13.8339593]}},{"type":"Feature","properties":{"h_name":"โรงพยาบาลพญาไท 1","address_th":"364/1 ถ. ศรีอยุธยา แขวง ถนนพญาไท เขตราชเทวี กรุงเทพมหานคร 10400 ไทย","h_code":"11715","province":"กรุงเทพมหานคร"},"id":"11715","geometry":{"type":"Point","coordinates":[100.5394184,13.7562641]}},{"type":"Feature","properties":{"h_name":"โรงพยาบาลเวชศาสตร์เขตร้อน มหาวิทยาลัยมหิดล","address_th":"420/6 ถนน ราชวิถี แขวง ทุ่งพญาไท เขตราชเทวี กรุงเทพมหานคร 10400 ไทย","h_code":"13757","province":"กรุงเทพมหานคร"},"id":"13757","geometry":{"type":"Point","coordinates":[100.533688,13.766465]}},{"type":"Feature","properties":{"h_name":"สถาบันประสาทวิทยา","address_th":"สถาบันประสาทวิทยา แขวง ทุ่งพญาไท เขตราชเทวี กรุงเทพมหานคร 10400 ไทย","h_code":"12439","province":"กรุงเทพมหานคร"},"id":"12439","geometry":{"type":"Point","coordinates":[100.5272122,13.7686777]}},{"type":"Feature","properties":{"h_name":"โรงพยาบาลทั่วไปขนาดใหญ่ศูนย์การแพทย์วิชัยยุทธ","address_th":"53 ถนน พระรามที่ 6 แขวง สามเสนใน เขตพญาไท กรุงเทพมหานคร 10400 ไทย","h_code":"23930","province":"กรุงเทพมหานคร"},"id":"23930","geometry":{"type":"Point","coordinates":[100.5329741,13.7804409]}},{"type":"Feature","properties":{"h_name":"โรงพยาบาลเกษมราษฎร์ประชาชื่น","address_th":"940 ถนน ประชาชื่น แขวง วงศ์สว่าง เขตบางซื่อ กรุงเทพมหานคร 10220 ไทย","h_code":"11687","province":"กรุงเทพมหานคร"},"id":"11687","geometry":{"type":"Point","coordinates":[100.5389974,13.8316938]}},{"type":"Feature","properties":{"h_name":"โรงพยาบาลวิชัยเวช อินเตอร์เนชั่นแนล หนองแขม","address_th":"456 456/8 ถ. เพชรเกษม แขวง หนองค้างพลู เขตหนองแขม กรุงเทพมหานคร 10160 ไทย","h_code":"11661","province":"กรุงเทพมหานคร"},"id":"11661","geometry":{"type":"Point","coordinates":[100.3606612,13.707466]}},{"type":"Feature","properties":{"h_name":"โรงพยาบาลรามคำแหง","address_th":"436 ถนน รามคำแหง แขวง หัวหมาก เขตบางกะปิ กรุงเทพมหานคร 10240 ไทย","h_code":"11565","province":"กรุงเทพมหานคร"},"id":"11565","geometry":{"type":"Point","coordinates":[100.6366935,13.7580971]}},{"type":"Feature","properties":{"h_name":"โรงพยาบาลเวชธานี","address_th":"1 ซอย ลาดพร้าว 111 แขวง คลองจั่น เขตบางกะปิ กรุงเทพมหานคร 10240 ไทย","h_code":"11564","province":"กรุงเทพมหานคร"},"id":"11564","geometry":{"type":"Point","coordinates":[100.6369352,13.7718945]}},{"type":"Feature","properties":{"h_name":"นวมินทร์โรงพยาบาลทั่วไปขนาดใหญ่","address_th":"44 505 ถนนนวมินทร์ แขวง นวลจันทร์ เขต บึงกุ่ม กรุงเทพมหานคร 10230 ไทย","h_code":"11595","province":"กรุงเทพมหานคร"},"id":"11595","geometry":{"type":"Point","coordinates":[100.6575798,13.8252866]}},{"type":"Feature","properties":{"h_name":"โรงพยาบาลนครธน","address_th":"1 ถ. พระราม 2 แขวง แสมดำ เขตบางขุนเทียน กรุงเทพมหานคร 10150 ไทย","h_code":"11648","province":"กรุงเทพมหานคร"},"id":"11648","geometry":{"type":"Point","coordinates":[100.4342061,13.6606777]}},{"type":"Feature","properties":{"h_name":"โรงพยาบาลไทยนครินทร์","address_th":"345 ถ. เทพรัตน แขวง บางนา เขตบางนา กรุงเทพมหานคร 10260 ไทย","h_code":"11730","province":"กรุงเทพมหานคร"},"id":"11730","geometry":{"type":"Point","coordinates":[100.6385639,13.6681477]}},{"type":"Feature","properties":{"h_name":"โรงพยาบาลบี เอ็น เอช","address_th":"9/1 ถนน คอนแวนต์ แขวง สีลม เขตบางรัก กรุงเทพมหานคร 10500 ไทย","h_code":"11546","province":"กรุงเทพมหานคร"},"id":"11546","geometry":{"type":"Point","coordinates":[100.5350217,13.724859]}},{"type":"Feature","properties":{"h_name":"โรงพยาบาลบี.แคร์.เมดิคอลเซ็นเตอร์","address_th":"29 Moo 6 ถ. พหลโยธิน แขวง สายไหม เขตสายไหม กรุงเทพมหานคร 10220 ไทย","h_code":"14572","province":"กรุงเทพมหานคร"},"id":"14572","geometry":{"type":"Point","coordinates":[100.6245445,13.9433853]}},{"type":"Feature","properties":{"h_name":"โรงพยาบาลทหารอากาศ (สีกัน)","address_th":"555 ถนน เดชะตุงคะ แขวง สีกัน เขตดอนเมือง กรุงเทพมหานคร 10210 ไทย","h_code":"41414","province":"กรุงเทพมหานคร"},"id":"41414","geometry":{"type":"Point","coordinates":[100.58133,13.94112]}},{"type":"Feature","properties":{"h_name":"กองแพทย์ สำนักงานสนับสนุน หน่วยบัญชาการทหารพัฒนา","address_th":"559 หมู่ 3, ถนนนาวงประชาพัฒนา, แขวงทุ่งสีกัน เขตดอนเมือง กรุงเทพมหานคร, 10210 10210 ไทย","h_code":"22537","province":"กรุงเทพมหานคร"},"id":"22537","geometry":{"type":"Point","coordinates":[100.5694784,13.9397292]}},{"type":"Feature","properties":{"h_name":"สถาบันมะเร็งแห่งชาติ","address_th":"6 268/1 Rama 6 Road แขวง ทุ่งพญาไท เขตราชเทวี กรุงเทพมหานคร 10400 ไทย","h_code":"12250","province":"กรุงเทพมหานคร"},"id":"12250","geometry":{"type":"Point","coordinates":[100.5271512,13.7675365]}},{"type":"Feature","properties":{"h_name":"คลินิกศูนย์แพทย์พัฒนา","address_th":"159 ถนน ประดิษฐ์มนูธรรม แขวง วังทองหลาง เขตวังทองหลาง กรุงเทพมหานคร 10310 ไทย","h_code":"22525","province":"กรุงเทพมหานคร"},"id":"22525","geometry":{"type":"Point","coordinates":[100.597957,13.7627214]}},{"type":"Feature","properties":{"h_name":"โรงพยาบาลบางนากรุงเทพมหานคร","address_th":"884 ถนน สรรพาวุธ แขวง บางนา เขตบางนา กรุงเทพมหานคร 10260 ไทย","h_code":"41582","province":"กรุงเทพมหานคร"},"id":"41582","geometry":{"type":"Point","coordinates":[100.592206,13.6799751]}},{"type":"Feature","properties":{"h_name":"โรงพยาบาลซีจีเอชโรงพยาบาลทั่วไปขนาดใหญ่","address_th":"290 ถ. พหลโยธิน แขวง อนุสาวรีย์ เขตบางเขน กรุงเทพมหานคร 10220 ไทย","h_code":"11558","province":"กรุงเทพมหานคร"},"id":"11558","geometry":{"type":"Point","coordinates":[100.6068165,13.8890128]}},{"type":"Feature","properties":{"h_name":"โรงพยาบาลกรุงเทพคริสเตียน","address_th":"124 ถนน สีลม แขวง สุริยวงศ์ เขตบางรัก กรุงเทพมหานคร 10500 ไทย","h_code":"11548","province":"กรุงเทพมหานคร"},"id":"11548","geometry":{"type":"Point","coordinates":[100.5312469,13.7282606]}},{"type":"Feature","properties":{"h_name":"โรงพยาบาลบางมดโรงพยาบาลทั่วไปขนาดใหญ่","address_th":"747 ถ. พระราม ๒ แขวง บางมด เขตจอมทอง กรุงเทพมหานคร 10150 ไทย","h_code":"11708","province":"กรุงเทพมหานคร"},"id":"11708","geometry":{"type":"Point","coordinates":[100.45648,13.6717765]}},{"type":"Feature","properties":{"h_name":"โรงพยาบาลเฉพาะประเภทผู้ป่วยสูงอายุ เฌ้อสเซอรี่โฮมขนาดเล็ก","address_th":"20 45 ถ. บางแวก แขวง บางแวก เขตภาษีเจริญ กรุงเทพมหานคร 10160 ไทย","h_code":"41329","province":"กรุงเทพมหานคร"},"id":"41329","geometry":{"type":"Point","coordinates":[100.44466,13.7358346]}},{"type":"Feature","properties":{"h_name":"โรงพยาบาลเสรีรักษ์","address_th":"44 ถ. เสรีไทย แขวง มีนบุรี เขตมีนบุรี กรุงเทพมหานคร 10510 ไทย","h_code":"23783","province":"กรุงเทพมหานคร"},"id":"23783","geometry":{"type":"Point","coordinates":[100.7174797,13.8100361]}},{"type":"Feature","properties":{"h_name":"โรงพยาบาลคลองสามวา","address_th":"177 ถนน ไมตรีจิต แขวง สามวาตะวันออก เขตคลองสามวา กรุงเทพมหานคร 10510 ไทย","h_code":"41522","province":"กรุงเทพมหานคร"},"id":"41522","geometry":{"type":"Point","coordinates":[100.7537153,13.9102014]}},{"type":"Feature","properties":{"h_name":"สถาบันสุขภาพเด็กแห่งชาติมหาราชินี","address_th":"ถนน ราชวิถี แขวง ทุ่งพญาไท เขตราชเทวี กรุงเทพมหานคร 10400 ไทย","h_code":"12438","province":"กรุงเทพมหานคร"},"id":"12438","geometry":{"type":"Point","coordinates":[100.5352354,13.7658293]}},{"type":"Feature","properties":{"h_name":"โรงพยาบาลบางไผ่","address_th":"62 ถ. เพชรเกษม แขวง ปากคลองภาษีเจริญ เขตภาษีเจริญ กรุงเทพมหานคร 10160 ไทย","h_code":"11621","province":"กรุงเทพมหานคร"},"id":"11621","geometry":{"type":"Point","coordinates":[100.4649291,13.7250378]}},{"type":"Feature","properties":{"h_name":"กรมแพทย์ทหารเรือ","address_th":"504 ถนน สมเด็จพระเจ้าตากสิน แขวง บุคคโล เขตธนบุรี กรุงเทพมหานคร 10600 ไทย","h_code":"21809","province":"กรุงเทพมหานคร"},"id":"21809","geometry":{"type":"Point","coordinates":[100.4858315,13.7094357]}},{"type":"Feature","properties":{"h_name":"โรงพยาบาลซีจีเอช สายไหม โรงพยาบาลทั่วไปขนาดใหญ่","address_th":"หมู่ 1 91 ถนน เฉลิมพงษ์ แขวง สายไหม เขตสายไหม กรุงเทพมหานคร 10220 ไทย","h_code":"21673","province":"กรุงเทพมหานคร"},"id":"21673","geometry":{"type":"Point","coordinates":[100.684069,13.9239176]}},{"type":"Feature","properties":{"h_name":"โรงพยาบาลสุขุมวิท","address_th":"1411 ถ. สุขุมวิท แขวง พระโขนงเหนือ เขตวัฒนา กรุงเทพมหานคร 10110 ไทย","h_code":"11591","province":"กรุงเทพมหานคร"},"id":"11591","geometry":{"type":"Point","coordinates":[100.5874746,13.7188065]}},{"type":"Feature","properties":{"h_name":"โรงพยาบาลยันฮี","address_th":"454 ถ. จรัญสนิทวงศ์ แขวง บางอ้อ เขตบางพลัด กรุงเทพมหานคร 10700 ไทย","h_code":"11676","province":"กรุงเทพมหานคร"},"id":"11676","geometry":{"type":"Point","coordinates":[100.5115719,13.7994936]}},{"type":"Feature","properties":{"h_name":"โรงพยาบาลธนบุรี 2","address_th":"43/4 ถนน บรมราชชนนี แขวง ศาลาธรรมสพน์ เขตทวีวัฒนา กรุงเทพมหานคร 10170 ไทย","h_code":"11640","province":"กรุงเทพมหานคร"},"id":"11640","geometry":{"type":"Point","coordinates":[100.4004467,13.7828095]}},{"type":"Feature","properties":{"h_name":"โรงพยาบาลทั่วไปขนาดใหญ่มิตรประชา","address_th":"675 ถ. เพชรเกษม แขวง บางหว้า เขตภาษีเจริญ กรุงเทพมหานคร 10160 ไทย","h_code":"25015","province":"กรุงเทพมหานคร"},"id":"25015","geometry":{"type":"Point","coordinates":[100.4318653,13.7120791]}},{"type":"Feature","properties":{"h_name":"โรงพยาบาลธนบุรี บำรุงเมือง โรงพยาบาลทั่วไปขนาดกลาง","address_th":"611 ถ. บำรุงเมือง แขวง คลองมหานาค เขตป้อมปราบศัตรูพ่าย กรุงเทพมหานคร 10100 ไทย","h_code":"41577","province":"กรุงเทพมหานคร"},"id":"41577","geometry":{"type":"Point","coordinates":[100.5145556,13.7505372]}},{"type":"Feature","properties":{"h_name":"โรงพยาบาลสมิติเวชธนบุรี","address_th":"337 ถนน สมเด็จพระเจ้าตากสิน แขวง สำเหร่ เขตธนบุรี กรุงเทพมหานคร 10600 ไทย","h_code":"11616","province":"กรุงเทพมหานคร"},"id":"11616","geometry":{"type":"Point","coordinates":[100.4895495,13.7144589]}},{"type":"Feature","properties":{"h_name":"โรงพยาบาลทั่วไปขนาดกลางนวเวช","address_th":"9 ถนน รัชดา-รามอินทรา แขวง นวลจันทร์ เขต บึงกุ่ม กรุงเทพมหานคร 10230 ไทย","h_code":"42141","province":"กรุงเทพมหานคร"},"id":"42141","geometry":{"type":"Point","coordinates":[100.6434696,13.816824]}},{"type":"Feature","properties":{"h_name":"โรงพยาบาลพญาไท นวมินทร์","address_th":"44 505 ถนนนวมินทร์ แขวง นวลจันทร์ เขต บึงกุ่ม กรุงเทพมหานคร 10230 ไทย","h_code":"24037","province":"กรุงเทพมหานคร"},"id":"24037","geometry":{"type":"Point","coordinates":[100.6575798,13.8252866]}},{"type":"Feature","properties":{"h_name":"โรงพยาบาลสวนเบญจกิติเฉลิมพระเกียรติ84พรรษา","address_th":"ถนนพระรามที่ ๔ แขวง คลองเตย เขตคลองเตย กรุงเทพมหานคร 10110 ไทย","h_code":"11532","province":"กรุงเทพมหานคร"},"id":"11532","geometry":{"type":"Point","coordinates":[100.5538564,13.7245502]}},{"type":"Feature","properties":{"h_name":"โรงพยาบาลการไฟฟ้านครหลวง","address_th":"809 1 ถนน สามเสน แขวง ถนนนครไชยศรี เขตดุสิต กรุงเทพมหานคร 10300 ไทย","h_code":"11531","province":"กรุงเทพมหานคร"},"id":"11531","geometry":{"type":"Point","coordinates":[100.5121102,13.7861816]}},{"type":"Feature","properties":{"h_name":"โรงพยาบาลเกษมราษฎร์ รามคำแหงโรงพยาบาลทั่วไปขนาดใหญ่","address_th":"99/9 ถนนรามคำแหง แขวง สะพานสูง เขตสะพานสูง กรุงเทพมหานคร 10240 ไทย","h_code":"41556","province":"กรุงเทพมหานคร"},"id":"41556","geometry":{"type":"Point","coordinates":[100.6740933,13.7764543]}},{"type":"Feature","properties":{"h_name":"โรงพยาบาลเพชรเวช","address_th":"2469 13,15 ถนน เพชรบุรีตัดใหม่ แขวง คลองตันเหนือ เขตห้วยขวาง กรุงเทพมหานคร 10310 ไทย","h_code":"11629","province":"กรุงเทพมหานคร"},"id":"11629","geometry":{"type":"Point","coordinates":[100.5947169,13.7427774]}},{"type":"Feature","properties":{"h_name":"โรงพยาบาลสมิติเวชไชน่าทาวน์โรงพยาบาลทั่วไปขนาดกลาง","address_th":"624 ถนน เยาวราช แขวง สัมพันธวงศ์ เขตสัมพันธวงศ์ กรุงเทพมหานคร 10100 ไทย","h_code":"40856","province":"กรุงเทพมหานคร"},"id":"40856","geometry":{"type":"Point","coordinates":[100.512612,13.737828]}},{"type":"Feature","properties":{"h_name":"สถาบันป้องกันควบคุมโรคเขตเมือง","address_th":"24/56 ถ. พหลโยธิน แขวง อนุสาวรีย์ เขตบางเขน กรุงเทพมหานคร 10220 ไทย","h_code":"14189","province":"กรุงเทพมหานคร"},"id":"14189","geometry":{"type":"Point","coordinates":[100.5956363,13.8725574]}},{"type":"Feature","properties":{"h_name":"โรงพยาบาลเทพธารินทร์","address_th":"3850 ถนนพระรามที่ ๔ แขวง พระโขนง เขตคลองเตย กรุงเทพมหานคร 10110 ไทย","h_code":"11720","province":"กรุงเทพมหานคร"},"id":"11720","geometry":{"type":"Point","coordinates":[100.5768054,13.7146245]}},{"type":"Feature","properties":{"h_name":"สำนักงานแพทย์ทหาร","address_th":"2218 ถนน กรุงเทพ - นนทบุรี แขวง วงศ์สว่าง เขตบางซื่อ กรุงเทพมหานคร 10800 ไทย","h_code":"22536","province":"กรุงเทพมหานคร"},"id":"22536","geometry":{"type":"Point","coordinates":[100.5328814,13.8280299]}},{"type":"Feature","properties":{"h_name":"โรงพยาบาลทั่วไปขนาดเล็กสหวิทยาการมะลิ","address_th":"771/1 ซอย เอกชัย 85 แขวง คลองบางบอน เขตบางบอน กรุงเทพมหานคร 10150 ไทย","h_code":"41072","province":"กรุงเทพมหานคร"},"id":"41072","geometry":{"type":"Point","coordinates":[100.4242219,13.6729263]}},{"type":"Feature","properties":{"h_name":"สถาบันจิตเวชศาสตร์สมเด็จเจ้าพระยา","address_th":"112 ถนน สมเด็จเจ้าพระยา แขวง คลองสาน เขตคลองสาน กรุงเทพมหานคร 10600 ไทย","h_code":"12244","province":"กรุงเทพมหานคร"},"id":"12244","geometry":{"type":"Point","coordinates":[100.5047033,13.7308579]}},{"type":"Feature","properties":{"h_name":"โรงพยาบาลบางโพ","address_th":"โรงพยาบาลบางโพ (Bangpo Hospital 95 ถนน ประชาราษฎร์ สาย 2 แขวง บางซื่อ เขตบางซื่อ กรุงเทพมหานคร 10800 ไทย","h_code":"11686","province":"กรุงเทพมหานคร"},"id":"11686","geometry":{"type":"Point","coordinates":[100.5232873,13.8070111]}},{"type":"Feature","properties":{"h_name":"สถาบันกัลยาณ์ราชนครินทร์","address_th":"23 ถนน พุทธมณฑลสาย 4 แขวง ทวีวัฒนา เขตทวีวัฒนา กรุงเทพมหานคร 10170 ไทย","h_code":"11597","province":"กรุงเทพมหานคร"},"id":"11597","geometry":{"type":"Point","coordinates":[100.3309115,13.7629594]}},{"type":"Feature","properties":{"h_name":"โรงพยาบาลทั่วไปขนาดใหญ่ สินแพทย์ ศรีนครินทร์","address_th":"19/9 ถนน เฉลิมพระเกียรติรัชกาลที่ 9 แขวง หนองบอน เขต ประเวศ กรุงเทพมหานคร 10250 ไทย","h_code":"41700","province":"กรุงเทพมหานคร"},"id":"41700","geometry":{"type":"Point","coordinates":[100.6483982,13.6785179]}},{"type":"Feature","properties":{"h_name":"สำนักงานบรรเทาทุกข์และประชานามัยพิทักษ์","address_th":"1871 ถ. อังรีดูนังต์ แขวง ปทุมวัน เขตปทุมวัน กรุงเทพมหานคร 10330 ไทย","h_code":"14953","province":"กรุงเทพมหานคร"},"id":"14953","geometry":{"type":"Point","coordinates":[100.5333121,13.7317926]}},{"type":"Feature","properties":{"h_name":"สถาบันสุขภาพจิตเด็กและวัยรุ่นราชนครินทร์","address_th":"75, 1 ถนน พระรามที่ ๖ แขวง ทุ่งพญาไท เขตราชเทวี กรุงเทพมหานคร 10400 ไทย","h_code":"14955","province":"กรุงเทพมหานคร"},"id":"14955","geometry":{"type":"Point","coordinates":[100.5278682,13.7661153]}},{"type":"Feature","properties":{"h_name":"สถาบันพัฒนาสุขภาวะเขตเมือง","address_th":"18 ถ. พหลโยธิน แขวง อนุสาวรีย์ เขตบางเขน กรุงเทพมหานคร 10220 ไทย","h_code":"12243","province":"กรุงเทพมหานคร"},"id":"12243","geometry":{"type":"Point","coordinates":[100.596622,13.872169]}},{"type":"Feature","properties":{"h_name":"โรงพยาบาลเฉพาะทางศัลยกรรมตกแต่งและทันตกรรมขนาดเล็ก เอสแอลซี","address_th":"916, 5 ซ. สุขุมวิท 55 แขวง คลองตันเหนือ เขตวัฒนา กรุงเทพมหานคร 10110 ไทย","h_code":"42205","province":"กรุงเทพมหานคร"},"id":"42205","geometry":{"type":"Point","coordinates":[100.5844391,13.7383799]}},{"type":"Feature","properties":{"h_name":"ฝ่ายแพทย์หลวงสวนจิตรลดา","address_th":"แขวง สวนจิตรลดา เขตดุสิต กรุงเทพมหานคร 10300 ไทย","h_code":"22523","province":"กรุงเทพมหานคร"},"id":"22523","geometry":{"type":"Point","coordinates":[100.5234918,13.7707348]}},{"type":"Feature","properties":{"h_name":"โรงพยาบาลราษฏร์บูรณะ","address_th":"377 ซอย สุขสวัสดิ์ 27 แขวง บางปะกอก เขตราษฎร์บูรณะ กรุงเทพมหานคร 10140 ไทย","h_code":"11669","province":"กรุงเทพมหานคร"},"id":"11669","geometry":{"type":"Point","coordinates":[100.5028488,13.677912]}},{"type":"Feature","properties":{"h_name":"โรงพยาบาลคามิลเลียน","address_th":"423 ซ. สุขุมวิท 55 แขวง คลองตันเหนือ เขตวัฒนา กรุงเทพมหานคร 10110 ไทย","h_code":"11697","province":"กรุงเทพมหานคร"},"id":"11697","geometry":{"type":"Point","coordinates":[100.5835462,13.7393035]}},{"type":"Feature","properties":{"h_name":"สถานพยาบาลเจตนิน","address_th":"5 ซอย ชิดลม แขวง ลุมพินี เขตปทุมวัน กรุงเทพมหานคร 10330 ไทย","h_code":"11571","province":"กรุงเทพมหานคร"},"id":"11571","geometry":{"type":"Point","coordinates":[100.5447766,13.7471891]}},{"type":"Feature","properties":{"h_name":"โรงพยาบาลคลองตัน","address_th":"3284 ถนน เพชรบุรีตัดใหม่ แขวง บางกะปิ เขตห้วยขวาง กรุงเทพมหานคร 10310 ไทย","h_code":"11626","province":"กรุงเทพมหานคร"},"id":"11626","geometry":{"type":"Point","coordinates":[100.5945526,13.7420586]}},{"type":"Feature","properties":{"h_name":"กองแพทย์ โรงเรียนช่างฝีมือทหาร","address_th":"742 ซอย พหลโยธิน 30 แยก 2-1 แขวง จันทรเกษม เขตจตุจักร กรุงเทพมหานคร 10900 ไทย","h_code":"14131","province":"กรุงเทพมหานคร"},"id":"14131","geometry":{"type":"Point","coordinates":[100.5738875,13.8292661]}},{"type":"Feature","properties":{"h_name":"โรงพยาบาลเทียนฟ้ามูลนิธิโรงพยาบาลทั่วไปขนาดกลาง","address_th":"606 ถนน เยาวราช แขวง สัมพันธวงศ์ เขตสัมพันธวงศ์ กรุงเทพมหานคร 10100 ไทย","h_code":"11603","province":"กรุงเทพมหานคร"},"id":"11603","geometry":{"type":"Point","coordinates":[100.5121917,13.7381771]}},{"type":"Feature","properties":{"h_name":"โรงพยาบาลบุรฉัตรไชยากร (รถไฟ)","address_th":"แขวง มักกะสัน เขตราชเทวี กรุงเทพมหานคร 10400 ไทย","h_code":"11534","province":"กรุงเทพมหานคร"},"id":"11534","geometry":{"type":"Point","coordinates":[100.551713,13.75225]}},{"type":"Feature","properties":{"h_name":"โรงพยาบาลผู้สูงอายุขนาดกลางกล้วยน้ำไท 2","address_th":"27 ซอย สุขุมวิท 68 แขวง บางนาเหนือ เขตบางนา กรุงเทพมหานคร 10260 ไทย","h_code":"11581","province":"กรุงเทพมหานคร"},"id":"11581","geometry":{"type":"Point","coordinates":[100.6069928,13.6770643]}},{"type":"Feature","properties":{"h_name":"โรงพยาบาลทั่วไปขนาดเล็กบางขุนเทียน 1","address_th":"124, 74-75 ซอย จอมทอง 18 แขวง บางค้อ เขตจอมทอง กรุงเทพมหานคร 10150 ไทย","h_code":"11706","province":"กรุงเทพมหานคร"},"id":"11706","geometry":{"type":"Point","coordinates":[100.4699636,13.6990497]}},{"type":"Feature","properties":{"h_name":"โรงพยาบาลทหารเรือกรุงเทพ","address_th":"224 ถนน ทางรถไฟสายเก่า แขวง บางนา เขตบางนา กรุงเทพมหานคร 10260 ไทย","h_code":"11479","province":"กรุงเทพมหานคร"},"id":"11479","geometry":{"type":"Point","coordinates":[100.5878225,13.6704843]}},{"type":"Feature","properties":{"h_name":"โรงพยาบาลอินทรารัตน์โรงพยาบาลทั่วไปขนาดกลาง","address_th":"555/5 ถ. รามอินทรา แขวง รามอินทรา เขตคันนายาว กรุงเทพมหานคร 10230 ไทย","h_code":"42183","province":"กรุงเทพมหานคร"},"id":"42183","geometry":{"type":"Point","coordinates":[100.6718716,13.8301572]}},{"type":"Feature","properties":{"h_name":"โรงพยาบาลทั่วไปขนาดเล็ก เอส วาย เอช","address_th":"11 ซอย พหลโยธิน 48 แยก 14 อนุสาวรีย์ เขตบางเขน กรุงเทพมหานคร 10220 ไทย","h_code":"40865","province":"กรุงเทพมหานคร"},"id":"40865","geometry":{"type":"Point","coordinates":[100.6075741,13.8822204]}},{"type":"Feature","properties":{"h_name":"โรงพยาบาลทั่วไปขนาดกลางโรงพยาบาลวิชัยเวช แยกไฟฉาย","address_th":"240/2-4 ถ. จรัญสนิทวงศ์ แขวง บ้านช่างหล่อ เขตบางกอกน้อย กรุงเทพมหานคร 10700 ไทย","h_code":"11641","province":"กรุงเทพมหานคร"},"id":"11641","geometry":{"type":"Point","coordinates":[100.4695658,13.7558572]}},{"type":"Feature","properties":{"h_name":"โรงพยาบาลศิรินโรงพยาบาลเฉพาะผู้ป่วยเรื้อรังขนาดเล็ก","address_th":"8 ซอย กรุงเทพกรีฑา 8 แยก 16 แขวง หัวหมาก เขตบางกะปิ กรุงเทพมหานคร 10240 ไทย","h_code":"41894","province":"กรุงเทพมหานคร"},"id":"41894","geometry":{"type":"Point","coordinates":[100.6536708,13.7404001]}},{"type":"Feature","properties":{"h_name":"โรงพยาบาลตา หู คอ จมูก","address_th":"585 ถนน สิรินธร แขวง บางบำหรุ เขตบางพลัด กรุงเทพมหานคร 10700 ไทย","h_code":"11677","province":"กรุงเทพมหานคร"},"id":"11677","geometry":{"type":"Point","coordinates":[100.4705058,13.7875427]}},{"type":"Feature","properties":{"h_name":"โรงพยาบาลบุญญาเวช โรงพยาบาลทั่วไปขนาดเล็ก","address_th":"834/1 ถ. เพชรเกษม แขวง บางแคเหนือ เขตบางแค กรุงเทพมหานคร 10160 ไทย","h_code":"41580","province":"กรุงเทพมหานคร"},"id":"41580","geometry":{"type":"Point","coordinates":[100.3863022,13.7093181]}},{"type":"Feature","properties":{"h_name":"โรงพยาบาลเดอะซีเนียน์ สาขารัชดาภิเษก","address_th":"131 ถนน รัชดาภิเษก,แขวง จันทรเกษม เขต จตุจักร กรุงเทพมหานคร 10900 จันทรเกษม จตุจักร กรุงเทพมหานคร 10900 ไทย","h_code":"22339","province":"กรุงเทพมหานคร"},"id":"22339","geometry":{"type":"Point","coordinates":[100.5745017,13.8270757]}},{"type":"Feature","properties":{"h_name":"โรงพยาบาลจักษุรัตนิน","address_th":"80/1 ถนน สุขุมวิท 21 แขวง คลองเตยเหนือ เขตวัฒนา กรุงเทพมหานคร 10110 ไทย","h_code":"11694","province":"กรุงเทพมหานคร"},"id":"11694","geometry":{"type":"Point","coordinates":[100.5630061,13.746461]}},{"type":"Feature","properties":{"h_name":"โรงพยาบาลครู","address_th":"128, 1 ถนน พิษณุโลก แขวง ดุสิต เขตดุสิต กรุงเทพมหานคร 10300 ไทย","h_code":"22155","province":"กรุงเทพมหานคร"},"id":"22155","geometry":{"type":"Point","coordinates":[100.5077596,13.7676728]}},{"type":"Feature","properties":{"h_name":"โรงพยาบาลมาสเตอร์พีชโรงพยาบาลศัลยกรรมตกแต่งขนาดเล็ก","address_th":"99 19 ถนน สุโขทัย แขวง ดุสิต เขตดุสิต กรุงเทพมหานคร 10300 ไทย","h_code":"42207","province":"กรุงเทพมหานคร"},"id":"42207","geometry":{"type":"Point","coordinates":[100.5113575,13.7808525]}},{"type":"Feature","properties":{"h_name":"โรงพยาบาลนมะรักษ์ เฉพาะทางศัลยศาสตร์มะเร็ง ขนาดเล็ก","address_th":"2414 ถนน เพชรบุรีตัดใหม่ แขวง บางกะปิ เขตห้วยขวาง กรุงเทพมหานคร 10310 ไทย","h_code":"41960","province":"กรุงเทพมหานคร"},"id":"41960","geometry":{"type":"Point","coordinates":[100.5838858,13.7442203]}},{"type":"Feature","properties":{"h_name":"โรงพยาบาลมนารมย์","address_th":"9 ซอย สุขุมวิท 70/3 แขวง บางนา เขตบางนา กรุงเทพมหานคร 10260 ไทย","h_code":"23780","province":"กรุงเทพมหานคร"},"id":"23780","geometry":{"type":"Point","coordinates":[100.6018156,13.6646221]}},{"type":"Feature","properties":{"h_name":"บี บี เอชโรงพยาบาลผู้ป่วยเรื้อรังขนาดเล็ก","address_th":"11 ซ. สุขุมวิท 39 แขวง คลองตันเหนือ เขตวัฒนา กรุงเทพมหานคร 10110 ไทย","h_code":"41767","province":"กรุงเทพมหานคร"},"id":"41767","geometry":{"type":"Point","coordinates":[100.570555,13.7320074]}},{"type":"Feature","properties":{"h_name":"โรงพยาบาลผิวหนังอโศก","address_th":"18 ถนน อโศก - ดินแดง แขวง บางกะปิ เขตห้วยขวาง กรุงเทพมหานคร 10310 ไทย","h_code":"23956","province":"กรุงเทพมหานคร"},"id":"23956","geometry":{"type":"Point","coordinates":[100.5642978,13.7508281]}},{"type":"Feature","properties":{"h_name":"สถานีกาชาดที่11 วิเศษนิยม","address_th":"605 ถ. เพชรเกษม แขวง บางหว้า เขตภาษีเจริญ กรุงเทพมหานคร 10160 ไทย","h_code":"12463","province":"กรุงเทพมหานคร"},"id":"12463","geometry":{"type":"Point","coordinates":[100.4355934,13.7125384]}},{"type":"Feature","properties":{"h_name":"โรงพยาบาลเอสโรงพยาบาลเฉพาะทางด้านกระดูกสันหลังและระบบประสาทขนาดเล็ก","address_th":"s spine and nerve ถนน ประดิษฐ์มนูธรรม แขวง วังทองหลาง เขตวังทองหลาง กรุงเทพมหานคร 10310 ไทย","h_code":"41861","province":"กรุงเทพมหานคร"},"id":"41861","geometry":{"type":"Point","coordinates":[100.6073669,13.7844143]}},{"type":"Feature","properties":{"h_name":"สิรินาถ บึงกุ่ม โรงพยาบาลทั่วไปขนาดกลาง","address_th":"10/1288 ถนนนวมินทร์ แขวง นวมินทร์ เขต บึงกุ่ม กรุงเทพมหานคร 10240 ไทย","h_code":"41670","province":"กรุงเทพมหานคร"},"id":"41670","geometry":{"type":"Point","coordinates":[100.648152,13.7995089]}},{"type":"Feature","properties":{"h_name":"โรงพยาบาลประชาพัฒน์","address_th":"ถ. สุขสวัสดิ์ แขวง บางปะกอก เขตราษฎร์บูรณะ กรุงเทพมหานคร 10140 ไทย","h_code":"11667","province":"กรุงเทพมหานคร"},"id":"11667","geometry":{"type":"Point","coordinates":[100.498644,13.6775756]}},{"type":"Feature","properties":{"h_name":"โกลเด้นเยียร์สถานพยาบาลผู้ป่วยเรื้อรัง","address_th":"55 3 ถนนสุ ทธิสารวินิจฉัย แขวง สามเสนนอก เขตห้วยขวาง กรุงเทพมหานคร 10310 ไทย","h_code":"11627","province":"กรุงเทพมหานคร"},"id":"11627","geometry":{"type":"Point","coordinates":[100.5773906,13.7896915]}},{"type":"Feature","properties":{"h_name":"สถานีกาชาดที่ 2 สุขุมาลอนามัย","address_th":"80, ซอย ถนนแพร่งภูธร แขวง ศาลเจ้าพ่อเสือ เขตพระนคร กรุงเทพมหานคร 10200 ไทย","h_code":"14947","province":"กรุงเทพมหานคร"},"id":"14947","geometry":{"type":"Point","coordinates":[100.4972748,13.7518836]}},{"type":"Feature","properties":{"h_name":"โรงพยาบาลผู้ป่วยเรื้อรังภัสรพิบาลเนอสซิ่งโฮมขนาดเล็ก","address_th":"185 ซอย ลาดพร้าว 71 แขวง สะพานสอง เขตวังทองหลาง กรุงเทพมหานคร 10310 ไทย","h_code":"41865","province":"กรุงเทพมหานคร"},"id":"41865","geometry":{"type":"Point","coordinates":[100.6072415,13.7945805]}},{"type":"Feature","properties":{"h_name":"สถานพยาบาลนันอา","address_th":"323 Prachathipok Road 323 ถนนประชาธิปก แขวงสมเด็จเจ้าพระยา เขตคลองสาน Somdet Chaopraya Klongsan กรุงเทพมหานคร 10600 ไทย","h_code":"11637","province":"กรุงเทพมหานคร"},"id":"11637","geometry":{"type":"Point","coordinates":[100.4953222,13.7313986]}},{"type":"Feature","properties":{"h_name":"โรงพยาบาลนวุติสมเด็จย่า","address_th":"1278 ถ. พหลโยธิน แขวง สามเสนใน เขตพญาไท กรุงเทพมหานคร 10400 ไทย","h_code":"23762","province":"กรุงเทพมหานคร"},"id":"23762","geometry":{"type":"Point","coordinates":[100.5458145,13.7843917]}},{"type":"Feature","properties":{"h_name":"โรงพยาบาลทันตกรรม กรุงเทพ อินเตอร์เนชั่นแนล ขนาดเล็ก","address_th":"98 ซอย สุขุมวิท 2 แขวง คลองเตย เขตคลองเตย กรุงเทพมหานคร 10110 ไทย","h_code":"42170","province":"กรุงเทพมหานคร"},"id":"42170","geometry":{"type":"Point","coordinates":[100.5516221,13.738377]}},{"type":"Feature","properties":{"h_name":"สถานพยาบาลพระราม 3","address_th":"85 95 ถ. พระรามที่ 3 แขวง บางคอแหลม เขตบางคอแหลม กรุงเทพมหานคร 10120 ไทย","h_code":"23957","province":"กรุงเทพมหานคร"},"id":"23957","geometry":{"type":"Point","coordinates":[100.4968893,13.6977682]}},{"type":"Feature","properties":{"h_name":"สถานพยาบาลมหาวิทยาลัยเกษตรศาสตร์","address_th":"50 ถนน งามวงศ์วาน แขวง ลาดยาว เขตจตุจักร กรุงเทพมหานคร 10900 ไทย","h_code":"41511","province":"กรุงเทพมหานคร"},"id":"41511","geometry":{"type":"Point","coordinates":[100.568367,13.8467693]}},{"type":"Feature","properties":{"h_name":"สถานเสาวภา สภากาชาดไทย","address_th":"1871 ถนนพระรามที่ ๔ แขวง ปทุมวัน เขตปทุมวัน กรุงเทพมหานคร 10330 ไทย","h_code":"12461","province":"กรุงเทพมหานคร"},"id":"12461","geometry":{"type":"Point","coordinates":[100.5327024,13.7323537]}},{"type":"Feature","properties":{"h_name":"โรงพยาบาลสุขสวัสดิ์","address_th":"ถ. สุขสวัสดิ์ แขวง บางปะกอก เขตราษฎร์บูรณะ กรุงเทพมหานคร 10140 ไทย","h_code":"11668","province":"กรุงเทพมหานคร"},"id":"11668","geometry":{"type":"Point","coordinates":[100.5011041,13.676112]}},{"type":"Feature","properties":{"h_name":"โรงพยาบาลบางพลี","address_th":"หมู่ที่ 8 88/1 ตำบล บางพลีใหญ่ อำเภอบางพลี สมุทรปราการ 10540 ไทย","h_code":"10753","province":"สมุทรปราการ"},"id":"10753","geometry":{"type":"Point","coordinates":[100.7061069,13.6038432]}},{"type":"Feature","properties":{"h_name":"โรงพยาบาลจุฬารัตน์ 3","address_th":"88, 8-9 ถ. เทพารักษ์ ตำบล บางปลา อำเภอบางพลี สมุทรปราการ 10540 ไทย","h_code":"11771","province":"สมุทรปราการ"},"id":"11771","geometry":{"type":"Point","coordinates":[100.7212443,13.5998401]}},{"type":"Feature","properties":{"h_name":"โรงพยาบาลสมุทรปราการ","address_th":"71 ถนน จักกะพาก ตำบลปากน้ำ อำเภอเมืองสมุทรปราการ สมุทรปราการ 10270 ไทย","h_code":"10685","province":"สมุทรปราการ"},"id":"10685","geometry":{"type":"Point","coordinates":[100.5973709,13.5838639]}},{"type":"Feature","properties":{"h_name":"โรงพยาบาลจุฬารัตน์9","address_th":"90/5 หมู่13 90 ถนนกิ่งแก้ว ตำบลราชาเทวะ อำเภอบางพลี สมุทรปราการ 10540 ไทย","h_code":"11768","province":"สมุทรปราการ"},"id":"11768","geometry":{"type":"Point","coordinates":[100.7224112,13.6774419]}},{"type":"Feature","properties":{"h_name":"โรงพยาบาลบางบ่อ","address_th":"89 หมู่1 บางเพรียง อำเภอบางบ่อ สมุทรปราการ 10560 ไทย","h_code":"10752","province":"สมุทรปราการ"},"id":"10752","geometry":{"type":"Point","coordinates":[100.835684,13.56966]}},{"type":"Feature","properties":{"h_name":"โรงพยาบาลบางปะกอกสมุทรปราการโรงพยาบาลทั่วไปขนาดกลาง","address_th":"เลขที่ 99 หมู่ที่ 7, ถ. สุขสวัสดิ์ ลัดหลวง อำเภอพระประแดง สมุทรปราการ 10130 ไทย","h_code":"41413","province":"สมุทรปราการ"},"id":"41413","geometry":{"type":"Point","coordinates":[100.5297965,13.6353114]}},{"type":"Feature","properties":{"h_name":"โรงพยาบาลรามาธิบดีจักรีนฤบดินทร์","address_th":"111 ถนนเลียบคลองส่งน้ำสุวรรณภูมิ ตำบล บางปลา อำเภอบางพลี สมุทรปราการ 10540 ไทย","h_code":"41373","province":"สมุทรปราการ"},"id":"41373","geometry":{"type":"Point","coordinates":[100.760843,13.5264499]}},{"type":"Feature","properties":{"h_name":"โรงพยาบาลบางจาก","address_th":"โรงพยาบาลบางจาก 35/3 อำเภอพระประแดง สมุทรปราการ 10130 ไทย","h_code":"10754","province":"สมุทรปราการ"},"id":"10754","geometry":{"type":"Point","coordinates":[100.5401853,13.6095822]}},{"type":"Feature","properties":{"h_name":"โรงพยาบาลสำโรงการแพทย์","address_th":"เลขที่ 1748 ซอย สุขุมวิท 78 ถ. สุขุมวิท ตำบล สำโรงเหนือ อำเภอเมืองสมุทรปราการ สมุทรปราการ 10270 ไทย","h_code":"14591","province":"สมุทรปราการ"},"id":"14591","geometry":{"type":"Point","coordinates":[100.5940993,13.6505089]}},{"type":"Feature","properties":{"h_name":"โรงพยาบาลทั่วไปขนาดใหญ่เปาโล สมุทรปราการ","address_th":"123 หมู่ที่ 8 ถนน ศรีนครินทร์ ตำบล บางเมือง อำเภอเมืองสมุทรปราการ สมุทรปราการ 10270 ไทย","h_code":"11743","province":"สมุทรปราการ"},"id":"11743","geometry":{"type":"Point","coordinates":[100.6146342,13.5983723]}},{"type":"Feature","properties":{"h_name":"โรงพยาบาลพระสมุทรเจดีย์","address_th":"172 ถ. สุขสวัสดิ์ ตำบล ปากคลองบางปลากด อำเภอพระสมุทรเจดีย์ สมุทรปราการ 10290 ไทย","h_code":"10755","province":"สมุทรปราการ"},"id":"10755","geometry":{"type":"Point","coordinates":[100.5783625,13.5927607]}},{"type":"Feature","properties":{"h_name":"โรงพยาบาลพริ้นซ์สุวรรณภูมิโรงพยาบาลทั่วไปขนาดใหญ่","address_th":"บางเเก้ว โรงพยาบาลพริ้นซ์ สุวรรณภูมิ เลขที่ 35/2 หมู่ 12 ทางคู่ขนาน ถนนบางนา-ตราด ตำบล บางแก้ว อำเภอบางพลี สมุทรปราการ 10540 ไทย","h_code":"11770","province":"สมุทรปราการ"},"id":"11770","geometry":{"type":"Point","coordinates":[100.6658577,13.6569844]}},{"type":"Feature","properties":{"h_name":"สถาบันราชประชาสมาสัย","address_th":"ตำบลสำโรงใต้ อำเภอพระประแดง จ.สมุทรปราการ, 10130 ไทย","h_code":"12252","province":"สมุทรปราการ"},"id":"12252","geometry":{"type":"Point","coordinates":[100.5376039,13.6526398]}},{"type":"Feature","properties":{"h_name":"โรงพยาบาลบางเสาธง","address_th":"ตำบลบางเสาธง อำเภอบางเสาธง สมุทรปราการ 10540 ไทย","h_code":"28785","province":"สมุทรปราการ"},"id":"28785","geometry":{"type":"Point","coordinates":[100.8361485,13.6508704]}},{"type":"Feature","properties":{"h_name":"โรงพยาบาลทั่วไปขนาดใหญ่สินแพทย์ เทพารักษ์","address_th":"9/99 ถ. เทพารักษ์ ตำบลเทพารักษ์ อำเภอเมืองสมุทรปราการ สมุทรปราการ 10270 ไทย","h_code":"41351","province":"สมุทรปราการ"},"id":"41351","geometry":{"type":"Point","coordinates":[100.6415143,13.6200138]}},{"type":"Feature","properties":{"h_name":"หัวเฉียวสหคลินิก","address_th":"18 หมู่ 7 ทางคู่ขนาน ถนนบางนา-ตราด ตำบลบางโฉลง อำเภอบางพลี สมุทรปราการ 10540 ไทย","h_code":"23963","province":"สมุทรปราการ"},"id":"23963","geometry":{"type":"Point","coordinates":[100.7583636,13.6147027]}},{"type":"Feature","properties":{"h_name":"โรงพยาบาลเปาโล พระประแดงโรงพยาบาลทั่วไปขนาดกลาง","address_th":"288 หมู่ที่ 1 ถ. สุขสวัสดิ์ ตำบล ปากคลองบางปลากด อำเภอพระสมุทรเจดีย์ สมุทรปราการ 10290 ไทย","h_code":"11747","province":"สมุทรปราการ"},"id":"11747","geometry":{"type":"Point","coordinates":[100.5514504,13.6083181]}},{"type":"Feature","properties":{"h_name":"โรงพยาบาลบางปะกอก3พระประแดง","address_th":"27/14 หมู่ที่ 10 ถ. สุขสวัสดิ์ ลัดหลวง อำเภอพระประแดง สมุทรปราการ 10130 ไทย","h_code":"11777","province":"สมุทรปราการ"},"id":"11777","geometry":{"type":"Point","coordinates":[100.528285,13.6343027]}},{"type":"Feature","properties":{"h_name":"โรงพยาบาลเมืองสมุทรปู่เจ้าสมิงพราย","address_th":"83 16 หมู่7 ถ. ปู่เจ้าสมิงพราย ตำบล สำโรงกลาง อำเภอพระประแดง สมุทรปราการ 10130 ไทย","h_code":"11775","province":"สมุทรปราการ"},"id":"11775","geometry":{"type":"Point","coordinates":[100.5783807,13.6466956]}},{"type":"Feature","properties":{"h_name":"โรงพยาบาลยุวประสาทไวทโยปถัมภ์","address_th":"61 สุขุมวิท ซอย 19 ตำบลปากน้ำ อำเภอเมืองสมุทรปราการ สมุทรปราการ 10270 ไทย","h_code":"12251","province":"สมุทรปราการ"},"id":"12251","geometry":{"type":"Point","coordinates":[100.5936419,13.6145571]}},{"type":"Feature","properties":{"h_name":"โรงพยาบาลเมืองสมุทรปากน้ำ","address_th":"ซอย เทศบาล 23 ตำบล ปากน้ำ อำเภอเมืองสมุทรปราการ สมุทรปราการ 10270 ไทย","h_code":"11761","province":"สมุทรปราการ"},"id":"11761","geometry":{"type":"Point","coordinates":[100.6011071,13.5950225]}},{"type":"Feature","properties":{"h_name":"โรงพยาบาลทั่วไปขนาดใหญ่ศิครินทร์ สมุทรปราการ","address_th":"29 999/23 ตำบล บางปูใหม่ อำเภอเมืองสมุทรปราการ สมุทรปราการ 10280 ไทย","h_code":"11745","province":"สมุทรปราการ"},"id":"11745","geometry":{"type":"Point","coordinates":[100.631032,13.531607]}},{"type":"Feature","properties":{"h_name":"โรงพยาบาลบางนา 5","address_th":"55 หมู่​4​ ถนนเทพารักษ์​ บางพลีใหญ่ บางพลี​ สมุทรปราการ 10540 ไทย","h_code":"24036","province":"สมุทรปราการ"},"id":"24036","geometry":{"type":"Point","coordinates":[100.6880253,13.6063793]}},{"type":"Feature","properties":{"h_name":"โรงพยาบาลรวมชัยประชารักษ์","address_th":"168/26 หมู่4 ถนนบางนา-ตราด กม.29 ตำบล บางบ่อ อำเภอบางบ่อ สมุทรปราการ 10560 ไทย","h_code":"14590","province":"สมุทรปราการ"},"id":"14590","geometry":{"type":"Point","coordinates":[100.8541723,13.5835527]}},{"type":"Feature","properties":{"h_name":"โรงพยาบาลเซ็นทรัลปาร์ค","address_th":"4 42 หมู่1 ทางคู่ขนาน ถนนบางนา-ตราด ตำบลบางโฉลง อำเภอบางพลี สมุทรปราการ 10540 ไทย","h_code":"11769","province":"สมุทรปราการ"},"id":"11769","geometry":{"type":"Point","coordinates":[100.7440673,13.6155882]}},{"type":"Feature","properties":{"h_name":"โรงพยาบาลบางนา2","address_th":"9 ตำบลบางเสาธง อำเภอบางเสาธง สมุทรปราการ 10540 ไทย","h_code":"11772","province":"สมุทรปราการ"},"id":"11772","geometry":{"type":"Point","coordinates":[100.8049758,13.5940439]}},{"type":"Feature","properties":{"h_name":"สถานีอนามัยเฉลิมพระเกียรติ 60 พรรษา นวมินทราชินี บ้านคลองบางปิ้ง","address_th":"ตำบล บางเมือง อำเภอเมืองสมุทรปราการ สมุทรปราการ 10270 ไทย","h_code":"00935","province":"สมุทรปราการ"},"id":"00935","geometry":{"type":"Point","coordinates":[100.6251379,13.605093]}},{"type":"Feature","properties":{"h_name":"สถานพยาบาลสถานีกาชาดที่ 5 สวางคนิวาส","address_th":"ตำบล ท้ายบ้าน อำเภอเมืองสมุทรปราการ สมุทรปราการ 10280 ไทย","h_code":"12464","province":"สมุทรปราการ"},"id":"12464","geometry":{"type":"Point","coordinates":[100.6154123,13.5502711]}},{"type":"Feature","properties":{"h_name":"โรงพยาบาลทั่วไปขนาดเล็กจุฬารัตน์1สุวรรณภูมิ","address_th":"68/1 ทางคู่ขนาน ถนนบางนา-ตราด ตำบลราชาเทวะ อำเภอบางพลี สมุทรปราการ 10540 ไทย","h_code":"11765","province":"สมุทรปราการ"},"id":"11765","geometry":{"type":"Point","coordinates":[100.7095629,13.6338387]}},{"type":"Feature","properties":{"h_name":"โรงพยาบาลวิภาราม-ชัยปราการ","address_th":"555 หมู่ 3 ถ. ปู่เจ้าสมิงพราย สำโรงกลาง อำเภอพระประแดง สมุทรปราการ 10310 ไทย","h_code":"22326","province":"สมุทรปราการ"},"id":"22326","geometry":{"type":"Point","coordinates":[100.5698702,13.6488686]}},{"type":"Feature","properties":{"h_name":"สถานพยาบาลจุฬารัตน์ 5","address_th":"ตำบลบางเสาธง อำเภอบางพลี สมุทรปราการ 10540 ไทย","h_code":"11766","province":"สมุทรปราการ"},"id":"11766","geometry":{"type":"Point","coordinates":[100.7900672,13.5690096]}},{"type":"Feature","properties":{"h_name":"โรงพยาบาลเดอะซีพลัสโรงพยาบาลทั่วไปขนาดเล็ก","address_th":"ตำบล แพรกษา อำเภอเมืองสมุทรปราการ สมุทรปราการ 10280 ไทย","h_code":"41367","province":"สมุทรปราการ"},"id":"41367","geometry":{"type":"Point","coordinates":[100.6547437,13.5800414]}},{"type":"Feature","properties":{"h_name":"สถาบันบำราศนราดูร","address_th":"หมู่ที่ 4 ตําบล 38, ถ. ติวานนท์ อำเภอเมืองนนทบุรี นนทบุรี 11000 ไทย","h_code":"12257","province":"นนทบุรี"},"id":"12257","geometry":{"type":"Point","coordinates":[100.5227505,13.8537638]}},{"type":"Feature","properties":{"h_name":"สำนักงานสาธารณสุขอำเภอปากเกร็ด","address_th":"ถนน สุขา ประชาสรรค์ 2 ซอย 37 ตำบล บางพูด อำเภอปากเกร็ด นนทบุรี 11120 ไทย","h_code":"00087","province":"นนทบุรี"},"id":"00087","geometry":{"type":"Point","coordinates":[100.5139697,13.9387271]}},{"type":"Feature","properties":{"h_name":"โรงพยาบาลพระนั่งเกล้า","address_th":"91 ถนน นนทบุรี บางกระสอ อำเภอเมืองนนทบุรี นนทบุรี 11000 ไทย","h_code":"10686","province":"นนทบุรี"},"id":"10686","geometry":{"type":"Point","coordinates":[100.4813982,13.8650761]}},{"type":"Feature","properties":{"h_name":"โรงพยาบาลบางกรวย","address_th":"หมู่ที่ 8 44 ตำบล วัดชลอ อำเภอบางกรวย นนทบุรี 11130 ไทย","h_code":"10756","province":"นนทบุรี"},"id":"10756","geometry":{"type":"Point","coordinates":[100.4722137,13.8050563]}},{"type":"Feature","properties":{"h_name":"ศูนย์การแพทย์ปัญญานันทภิกขุ ชลประทาน มหาวิทยาลัยศรีนครินทรวิโรฒ","address_th":"222 ซอย ติวานนท์-ปากเกร็ด 1 ตำบลบางตลาด อำเภอปากเกร็ด นนทบุรี 11120 ไทย","h_code":"13815","province":"นนทบุรี"},"id":"13815","geometry":{"type":"Point","coordinates":[100.5034466,13.8982695]}},{"type":"Feature","properties":{"h_name":"ศูนย์บริการสาธารณสุขชุมชนหมู่บ้านสมชาย","address_th":"69, 19 ซอย สมชายพัฒนา ตำบล บางกรวย อำเภอบางกรวย นนทบุรี 11130 ไทย","h_code":"15243","province":"นนทบุรี"},"id":"15243","geometry":{"type":"Point","coordinates":[100.4968414,13.807455]}},{"type":"Feature","properties":{"h_name":"โรงพยาบาลบางบัวทอง","address_th":"ถนนเทศบาล ๖ ตำบลโสนลอย อำเภอบางบัวทอง นนทบุรี 11110 ไทย","h_code":"10758","province":"นนทบุรี"},"id":"10758","geometry":{"type":"Point","coordinates":[100.4226199,13.9180095]}},{"type":"Feature","properties":{"h_name":"โรงพยาบาลปากเกร็ด","address_th":"33 หมู่ที่ 5 ถนน สะพานนนทบุรี - บางบัวทอง ตำบล คลองข่อย อำเภอปากเกร็ด นนทบุรี 11120 ไทย","h_code":"10760","province":"นนทบุรี"},"id":"10760","geometry":{"type":"Point","coordinates":[100.461269,13.949472]}},{"type":"Feature","properties":{"h_name":"โรงพยาบาล เวิลด์ เมดิคอล เซ็นเตอร์","address_th":"ซอย แจ้งวัฒนะ-ปากเกร็ด 19 ตำบล ปากเกร็ด อำเภอปากเกร็ด นนทบุรี 11120 ไทย","h_code":"28810","province":"นนทบุรี"},"id":"28810","geometry":{"type":"Point","coordinates":[100.5248272,13.9050065]}},{"type":"Feature","properties":{"h_name":"โรงพยาบาลวิภารามปากเกร็ด","address_th":"132 215 ถ. แจ้งวัฒนะ ตำบล ปากเกร็ด อำเภอปากเกร็ด นนทบุรี 11120 ไทย","h_code":"24191","province":"นนทบุรี"},"id":"24191","geometry":{"type":"Point","coordinates":[100.4984508,13.9101307]}},{"type":"Feature","properties":{"h_name":"โรงพยาบาลบางใหญ่","address_th":"111 หมู่ที่ 3 ถ. กาญจนาภิเษก ตำบล บางม่วง อำเภอบางใหญ่ นนทบุรี 11140 ไทย","h_code":"10757","province":"นนทบุรี"},"id":"10757","geometry":{"type":"Point","coordinates":[100.4108545,13.8456482]}},{"type":"Feature","properties":{"h_name":"โรงพยาบาลไทรน้อย","address_th":"43/6 หมู่ที่ 5 ถ. บางกรวย - ไทรน้อย ตำบลไทรน้อย อำเภอไทรน้อย นนทบุรี 11150 ไทย","h_code":"10759","province":"นนทบุรี"},"id":"10759","geometry":{"type":"Point","coordinates":[100.3257797,13.9819721]}},{"type":"Feature","properties":{"h_name":"สถาบันโรคทรวงอก","address_th":"74 ถ. ติวานนท์ บางกระสอ อำเภอเมืองนนทบุรี นนทบุรี 11000 ไทย","h_code":"12256","province":"นนทบุรี"},"id":"12256","geometry":{"type":"Point","coordinates":[100.5215472,13.8618966]}},{"type":"Feature","properties":{"h_name":"ศูนย์สุขภาพชุชนโรงพยาบาลชลประทาน","address_th":"ซอย ติวานนท์-ปากเกร็ด 1 ตำบลบางตลาด อำเภอปากเกร็ด นนทบุรี 11120 ไทย","h_code":"22424","province":"นนทบุรี"},"id":"22424","geometry":{"type":"Point","coordinates":[100.5013747,13.9019281]}},{"type":"Feature","properties":{"h_name":"โรงพยาบาลส่งเสริมสุขภาพตำบลหมู่ 3 บางคูรัด","address_th":"Moo 3, Yothathikan Nonthaburi 2011 Road , Bang Khu Rat , 11110 Bang Bua Thong , Nonthaburi, 11140 ไทย","h_code":"01034","province":"นนทบุรี"},"id":"01034","geometry":{"type":"Point","coordinates":[100.359883,13.919933]}},{"type":"Feature","properties":{"h_name":"โรงพยาบาลทั่วไปขนาดใหญ่เกษมราษฎร์ รัตนาธิเบศร์","address_th":"58 หมู่ที่ 15 ถนน รัตนาธิเบศร์ ตำบล บางรักพัฒนา อำเภอบางบัวทอง นนทบุรี 11110 ไทย","h_code":"40765","province":"นนทบุรี"},"id":"40765","geometry":{"type":"Point","coordinates":[100.4236795,13.8761727]}},{"type":"Feature","properties":{"h_name":"สถาบันสิรินธรเพื่อการฟื้นฟูสมรรถภาพทางการแพทย์แห่งชาติ","address_th":"88, 26 ซอย ติวานนท์ 14 ตำบล ตลาดขวัญ อำเภอเมืองนนทบุรี นนทบุรี 11000 ไทย","h_code":"12258","province":"นนทบุรี"},"id":"12258","geometry":{"type":"Point","coordinates":[100.5255548,13.853362]}},{"type":"Feature","properties":{"h_name":"โรงพยาบาลเกษมราษฎร์อินเตอร์เนชั่นแนล รัตนาธิเบศร์โรงพยาบาลทั่วไปขนาดใหญ่","address_th":"60 หมู่ที่ 6 ถ. กาญจนาภิเษก ตำบล เสาธงหิน อำเภอบางใหญ่ นนทบุรี 11140 ไทย","h_code":"11787","province":"นนทบุรี"},"id":"11787","geometry":{"type":"Point","coordinates":[100.4102792,13.8812013]}},{"type":"Feature","properties":{"h_name":"โรงพยาบาลนนทเวช","address_th":"432 ถนน งามวงศ์วาน ตำบลบางเขน อำเภอเมืองนนทบุรี นนทบุรี 11000 ไทย","h_code":"11781","province":"นนทบุรี"},"id":"11781","geometry":{"type":"Point","coordinates":[100.5428525,13.8554841]}},{"type":"Feature","properties":{"h_name":"โรงพยาบาลบางบัวทอง ๒","address_th":"8/88, ต.พิมลราช ตำบล พิมลราช อำเภอบางบัวทอง นนทบุรี 11110 ไทย","h_code":"28875","province":"นนทบุรี"},"id":"28875","geometry":{"type":"Point","coordinates":[100.3522787,13.9331899]}},{"type":"Feature","properties":{"h_name":"โรงพยาบาลกรุงไทย","address_th":"56/96, อำเภอปากเกร็ด นนทบุรี 11120 ไทย","h_code":"22179","province":"นนทบุรี"},"id":"22179","geometry":{"type":"Point","coordinates":[100.5092523,13.9129495]}},{"type":"Feature","properties":{"h_name":"ศูนย์บริการสาธารณสุขเทศบาลนครนนทบุรีที่ 6","address_th":"203 ซอย ประชาราษฎร์ 13 ตำบลสวนใหญ่ อำเภอเมืองนนทบุรี นนทบุรี 11000 ไทย","h_code":"28866","province":"นนทบุรี"},"id":"28866","geometry":{"type":"Point","coordinates":[100.4924861,13.8422442]}},{"type":"Feature","properties":{"h_name":"ศูนย์เทคโนโลยีสารสนเทศและการสื่อสาร(ศทส)","address_th":"88/20 หมู่ 4 ตึกสำนักงานปลัดกระทรวงสาธารณสุข ถนน ติวานนท์ ตำบล ตลาดขวัญ อำเภอเมืองนนทบุรี นนทบุรี 11000 ไทย","h_code":"41124","province":"นนทบุรี"},"id":"41124","geometry":{"type":"Point","coordinates":[100.5276137,13.8501885]}},{"type":"Feature","properties":{"h_name":"โรงพยาบาลธรรมศาสตร์เฉลิมพระเกียรติ","address_th":"หมู่ที่ 8 95 ตำบล คลองหนึ่ง อำเภอคลองหลวง ปทุมธานี 12120 ไทย","h_code":"13778","province":"ปทุมธานี"},"id":"13778","geometry":{"type":"Point","coordinates":[100.6150104,14.0734093]}},{"type":"Feature","properties":{"h_name":"โรงพยาบาลปทุมธานี","address_th":"7 ถนน ปทุมธานี - ลาดหลุมแก้ว ตำบล บางปรอก อำเภอ เมืองปทุมธานี ปทุมธานี 12000 ไทย","h_code":"10687","province":"ปทุมธานี"},"id":"10687","geometry":{"type":"Point","coordinates":[100.5233701,14.020474]}},{"type":"Feature","properties":{"h_name":"โรงพยาบาลลำลูกกา","address_th":"46 หมู่ 9 ตำบล ลำไทร อำเภอลำลูกกา ปทุมธานี 12150 ไทย","h_code":"10766","province":"ปทุมธานี"},"id":"10766","geometry":{"type":"Point","coordinates":[100.8576572,13.9568604]}},{"type":"Feature","properties":{"h_name":"โรงพยาบาลธัญบุรี","address_th":"140 ถนน รังสิต - นครนายก ตำบล รังสิต อำเภอธัญบุรี ปทุมธานี 12110 ไทย","h_code":"10762","province":"ปทุมธานี"},"id":"10762","geometry":{"type":"Point","coordinates":[100.7298589,14.0186286]}},{"type":"Feature","properties":{"h_name":"โรงพยาบาลคลองหลวง","address_th":"ตำบล คลองหก อำเภอคลองหลวง ปทุมธานี 12120 ไทย","h_code":"10761","province":"ปทุมธานี"},"id":"10761","geometry":{"type":"Point","coordinates":[100.7273089,14.0952758]}},{"type":"Feature","properties":{"h_name":"โรงพยาบาลแพทย์รังสิต","address_th":"733/347, Moo 8, Phaholyotin Road, Tambon Khukot, Amphoe Lam Luk Ka, Pathumthani, 12130, ไทย","h_code":"11789","province":"ปทุมธานี"},"id":"11789","geometry":{"type":"Point","coordinates":[100.6218779,13.9632592]}},{"type":"Feature","properties":{"h_name":"คลินิกเวชกรรม มหาวิทยาลัยรังสิต","address_th":"อาคารรังสิตประยูรศักดิ์ 52/347 หมู่ที่7 ซอย 1 ตำบล หลักหก อำเภอเมืองปทุมธานี ปทุมธานี ไทย","h_code":"41392","province":"ปทุมธานี"},"id":"41392","geometry":{"type":"Point","coordinates":[100.5858578,13.9672879]}},{"type":"Feature","properties":{"h_name":"โรงพยาบาลประชาธิปัตย์","address_th":"17 ซอย รังสิต-ปทุมธานี 7 ตำบล ประชาธิปัตย์ อำเภอธัญบุรี ปทุมธานี 12130 ไทย","h_code":"10763","province":"ปทุมธานี"},"id":"10763","geometry":{"type":"Point","coordinates":[100.6126711,13.9853848]}},{"type":"Feature","properties":{"h_name":"โรงพยาบาลลาดหลุมแก้ว","address_th":"187 หมู่4 ตำบล ระแหง อำเภอลาดหลุมแก้ว ปทุมธานี 12140 ไทย","h_code":"10765","province":"ปทุมธานี"},"id":"10765","geometry":{"type":"Point","coordinates":[100.4157634,14.0368816]}},{"type":"Feature","properties":{"h_name":"โรงพยาบาลการุญเวช ปทุมธานี","address_th":"98 ถ. พหลโยธิน ตำบล คลองหนึ่ง อำเภอคลองหลวง ปทุมธานี 12120 ไทย","h_code":"11799","province":"ปทุมธานี"},"id":"11799","geometry":{"type":"Point","coordinates":[100.6178566,14.1172222]}},{"type":"Feature","properties":{"h_name":"โรงพยาบาลหนองเสือ","address_th":"ตำบล บึงบา อำเภอ หนองเสือ ปทุมธานี 12170 ไทย","h_code":"10764","province":"ปทุมธานี"},"id":"10764","geometry":{"type":"Point","coordinates":[100.823952,14.141307]}},{"type":"Feature","properties":{"h_name":"โรงพยาบาลทั่วไปขนาดกลางเปาโล รังสิต","address_th":"11, 1 ถนน รังสิต - นครนายก ตำบล ประชาธิปัตย์ อำเภอธัญบุรี ปทุมธานี 12130 ไทย","h_code":"40887","province":"ปทุมธานี"},"id":"40887","geometry":{"type":"Point","coordinates":[100.6196973,13.9857033]}},{"type":"Feature","properties":{"h_name":"โรงพยาบาลมหาวชิราลงกรณ ธัญบุรี","address_th":"139 หมู่ที่ 4 ถนน รังสิต - นครนายก ตำบล บึงสนั่น อำเภอธัญบุรี ปทุมธานี 12110 ไทย","h_code":"14923","province":"ปทุมธานี"},"id":"14923","geometry":{"type":"Point","coordinates":[100.8366852,14.0687027]}},{"type":"Feature","properties":{"h_name":"โรงพยาบาลปทุมเวช","address_th":"1 ถนน รังสิต-ปทุมธานี ตำบล ประชาธิปัตย์ อำเภอธัญบุรี ปทุมธานี 12130 ไทย","h_code":"11800","province":"ปทุมธานี"},"id":"11800","geometry":{"type":"Point","coordinates":[100.6104628,13.9884092]}},{"type":"Feature","properties":{"h_name":"สถาบันบำบัดรักษาและฟื้นฟูผู้ติดยาเสพติดแห่งชาติบรมราชชนนี","address_th":"60 ถ. พหลโยธิน ตำบล ประชาธิปัตย์ อำเภอธัญบุรี ปทุมธานี 12130 ไทย","h_code":"12262","province":"ปทุมธานี"},"id":"12262","geometry":{"type":"Point","coordinates":[100.6184331,13.9779261]}},{"type":"Feature","properties":{"h_name":"โรงพยาบาลภัทร-ธนบุรี","address_th":"32/410 ม.6 ทางคู่ขนาน ถ. พหลโยธิน ตำบล คลองหนึ่ง อำเภอคลองหลวง ปทุมธานี 12120 ไทย","h_code":"14354","province":"ปทุมธานี"},"id":"14354","geometry":{"type":"Point","coordinates":[100.6179585,14.0488576]}},{"type":"Feature","properties":{"h_name":"โรงพยาบาลสามโคก","address_th":"หมู่ 6 ศูนย์ศิลปาชีพบางไทร 83 1 ตำบลบ้านปทุม อำเภอสามโคก ปทุมธานี 12160 ไทย","h_code":"10767","province":"ปทุมธานี"},"id":"10767","geometry":{"type":"Point","coordinates":[100.5737301,14.0865216]}},{"type":"Feature","properties":{"h_name":"โรงพยาบาลกรุงสยามเซนต์คาร์ลอส","address_th":"Tiwanon Road ตำบล บ้านกลาง Amphoe Mueang ปทุมธานี 12000 ไทย","h_code":"14683","province":"ปทุมธานี"},"id":"14683","geometry":{"type":"Point","coordinates":[100.5540941,14.0049553]}},{"type":"Feature","properties":{"h_name":"โรงพยาบาลทั่วไปขนาดใหญ่ สินแพทย์ ลำลูกกา","address_th":"37 29 ถ. ลำลูกกา ตำบลคูคต อำเภอลำลูกกา ปทุมธานี 12130 ไทย","h_code":"41698","province":"ปทุมธานี"},"id":"41698","geometry":{"type":"Point","coordinates":[100.6606468,13.9317477]}},{"type":"Feature","properties":{"h_name":"โรงพยาบาลทั่วไปขนาดใหญ่บางปะกอกรังสิต 2","address_th":"757 ซอย รังสิต-นครนายก 53 ตำบล ประชาธิปัตย์ อำเภอธัญบุรี ปทุมธานี 12130 ไทย","h_code":"11801","province":"ปทุมธานี"},"id":"11801","geometry":{"type":"Point","coordinates":[100.6528923,13.9940461]}},{"type":"Feature","properties":{"h_name":"โรงพยาบาลซีจีเอช ลำลูกกา โรงพยาบาลทั่วไปขนาดใหญ่","address_th":"80/77-80 หมู่ที่ 5 ถ.ลำลูกกา ลำลูกกา ปทุมธานี 12150 ไทย","h_code":"39977","province":"ปทุมธานี"},"id":"39977","geometry":{"type":"Point","coordinates":[100.7777806,13.945424]}},{"type":"Feature","properties":{"h_name":"โรงพยาบาลเฉพาะทางแม่และเด็กแพทย์รังสิต โรงพยาบาลขนาดกลาง","address_th":"733/347, Moo 8, Phaholyotin Road, Tambon Khukot, Amphoe Lam Luk Ka, Pathumthani, 12130, ไทย","h_code":"24703","province":"ปทุมธานี"},"id":"24703","geometry":{"type":"Point","coordinates":[100.6218779,13.9632592]}},{"type":"Feature","properties":{"h_name":"โรงพยาบาลแพทย์รังสิต 2 โรงพยาบาลทั่วไปขนาดกลาง","address_th":"733345 ถ. พหลโยธิน ตำบลคูคต อำเภอลำลูกกา ปทุมธานี 12130 ไทย","h_code":"41760","province":"ปทุมธานี"},"id":"41760","geometry":{"type":"Point","coordinates":[100.6212273,13.9630667]}},{"type":"Feature","properties":{"h_name":"โรงพยาบาลซีเมดลีฟวิ่งแคร์ โรงพยาบาลทั่วไปขนาดเล็ก","address_th":"111 ซอย รังสิต-นครนายก 42 ตำบล ประชาธิปัตย์ อำเภอธัญบุรี ปทุมธานี 12130 ไทย","h_code":"42177","province":"ปทุมธานี"},"id":"42177","geometry":{"type":"Point","coordinates":[100.6400469,13.9813161]}},{"type":"Feature","properties":{"h_name":"โรงพยาบาลกรุงไทย ปทุม โรงพยาบาลทั่วไปขนาดเล็ก","address_th":"333 หมู่ 3 ตำบล บางขะแยง อำเภอเมืองปทุมธานี ปทุมธานี 12000 ไทย","h_code":"41685","province":"ปทุมธานี"},"id":"41685","geometry":{"type":"Point","coordinates":[100.5274032,13.9577615]}},{"type":"Feature","properties":{"h_name":"โรงพยาบาลเฉพาะประเภทผู้ป่วย ผู้สูงอายุ ขนาดกลาง ธนบุรีบูรณา","address_th":"89/3 ถ. พหลโยธิน คลองหนึ่ง อำเภอคลองหลวง ปทุมธานี 12120 ไทย","h_code":"42191","province":"ปทุมธานี"},"id":"42191","geometry":{"type":"Point","coordinates":[100.6104869,14.0303359]}},{"type":"Feature","properties":{"h_name":"โรงพยาบาลพระนครศรีอยุธยา","address_th":"หมู่ที่ 4 46/1 ถ. อู่ทอง อำเภอ พระนครศรีอยุธยา จังหวัดพระนครศรีอยุธยา 13000 ไทย","h_code":"10660","province":"พระนครศรีอยุธยา"},"id":"10660","geometry":{"type":"Point","coordinates":[100.5601252,14.3438253]}},{"type":"Feature","properties":{"h_name":"โรงพยาบาลเสนา","address_th":"Tambon Tha Sena, ตำบล เจ้าเจ็ด Phra Nakhon Si Ayutthaya จังหวัดพระนครศรีอยุธยา 13110 ไทย","h_code":"10688","province":"พระนครศรีอยุธยา"},"id":"10688","geometry":{"type":"Point","coordinates":[100.388113,14.321138]}},{"type":"Feature","properties":{"h_name":"โรงพยาบาลบางปะอิน","address_th":"ตำบล บ้านเลน อำเภอบางปะอิน จังหวัดพระนครศรีอยุธยา 13160 ไทย","h_code":"10772","province":"พระนครศรีอยุธยา"},"id":"10772","geometry":{"type":"Point","coordinates":[100.5768212,14.2137717]}},{"type":"Feature","properties":{"h_name":"โรงพยาบาลวังน้อย","address_th":"โรงพยาบาลวังน้อย เลขที่ 100 ตำบล ลำไทร อำเภอวังน้อย จังหวัดพระนครศรีอยุธยา 13170 ไทย","h_code":"10777","province":"พระนครศรีอยุธยา"},"id":"10777","geometry":{"type":"Point","coordinates":[100.7001764,14.2245995]}},{"type":"Feature","properties":{"h_name":"โรงพยาบาลสมเด็จพระสังฆราชเจ้า กรมหลวงชินวราลงกรณ (วาสนมหาเถร)","address_th":"200 ถนน องค์การบริหารส่วนจังหวัด พระนครศรีอยุธยา 2543 ตำบล บ่อโพง อำเภอนครหลวง จังหวัดพระนครศรีอยุธยา 13260 ไทย","h_code":"10769","province":"พระนครศรีอยุธยา"},"id":"10769","geometry":{"type":"Point","coordinates":[100.5928943,14.3981882]}},{"type":"Feature","properties":{"h_name":"โรงพยาบาลอุทัย","address_th":"15 หมู่ 5 ตำบล อุทัย อำเภออุทัย จังหวัดพระนครศรีอยุธยา 13210 ไทย","h_code":"10779","province":"พระนครศรีอยุธยา"},"id":"10779","geometry":{"type":"Point","coordinates":[100.6455853,14.3611264]}},{"type":"Feature","properties":{"h_name":"โรงพยาบาลบางไทร","address_th":"ตำบล บางไทร อำเภอบางไทร จังหวัดพระนครศรีอยุธยา 13190 ไทย","h_code":"10770","province":"พระนครศรีอยุธยา"},"id":"10770","geometry":{"type":"Point","coordinates":[100.494314,14.200606]}},{"type":"Feature","properties":{"h_name":"โรงพยาบาลผักไห่","address_th":"15 เทศบาล 5 ตำบล ตาลาน อำเภอ ผักไห่ จังหวัดพระนครศรีอยุธยา 13120 ไทย","h_code":"10774","province":"พระนครศรีอยุธยา"},"id":"10774","geometry":{"type":"Point","coordinates":[100.3718664,14.4465105]}},{"type":"Feature","properties":{"h_name":"โรงพยาบาลท่าเรือ","address_th":"440/1 เทศบาล 2 ถนนเทศบาล 2 ตำบล ท่าเรือ อำเภอ ท่าเรือ จังหวัดพระนครศรีอยุธยา 13130 ไทย","h_code":"10768","province":"พระนครศรีอยุธยา"},"id":"10768","geometry":{"type":"Point","coordinates":[100.723515,14.5661187]}},{"type":"Feature","properties":{"h_name":"โรงพยาบาลบางปะหัน","address_th":"จังหวัด พระนครศรีอยุธยา ตำบล บางนางร้า อำเภอบางปะหัน จังหวัดพระนครศรีอยุธยา 13220 ไทย","h_code":"10773","province":"พระนครศรีอยุธยา"},"id":"10773","geometry":{"type":"Point","coordinates":[100.534255,14.476474]}},{"type":"Feature","properties":{"h_name":"โรงพยาบาลลาดบัวหลวง","address_th":"จังหวัด พระนครศรีอยุธยา อำเภอลาดบัวหลวง จังหวัดพระนครศรีอยุธยา 13230 ไทย","h_code":"10776","province":"พระนครศรีอยุธยา"},"id":"10776","geometry":{"type":"Point","coordinates":[100.299492,14.1657]}},{"type":"Feature","properties":{"h_name":"โรงพยาบาลภาชี","address_th":"32 ถนนสุวรรณศร ตำบล ภาชี อำเภอ ภาชี จังหวัดพระนครศรีอยุธยา 13140 ไทย","h_code":"10775","province":"พระนครศรีอยุธยา"},"id":"10775","geometry":{"type":"Point","coordinates":[100.7383387,14.4447599]}},{"type":"Feature","properties":{"h_name":"โรงพยาบาลบางบาล","address_th":"จังหวัด พระนครศรีอยุธยา อำเภอ บางบาล จังหวัดพระนครศรีอยุธยา 13250 ไทย","h_code":"10771","province":"พระนครศรีอยุธยา"},"id":"10771","geometry":{"type":"Point","coordinates":[100.4870354,14.3671483]}},{"type":"Feature","properties":{"h_name":"โรงพยาบาลมหาราช","address_th":"หมู่ที่ 6 224 ตำบล หัวไผ่ อำเภอมหาราช จังหวัดพระนครศรีอยุธยา 13150 ไทย","h_code":"10780","province":"พระนครศรีอยุธยา"},"id":"10780","geometry":{"type":"Point","coordinates":[100.5285492,14.5377688]}},{"type":"Feature","properties":{"h_name":"โรงพยาบาลบางซ้าย","address_th":"58 หมู่ 1 ตำบล บางซ้าย อำเภอ บางซ้าย จังหวัดพระนครศรีอยุธยา 13270 ไทย","h_code":"10778","province":"พระนครศรีอยุธยา"},"id":"10778","geometry":{"type":"Point","coordinates":[100.297458,14.317337]}},{"type":"Feature","properties":{"h_name":"โรงพยาบาลบ้านแพรก","address_th":"จังหวัด พระนครศรีอยุธยา ตำบล บ้านใหม่ อำเภอ บ้านแพรก จังหวัดพระนครศรีอยุธยา 13240 ไทย","h_code":"10781","province":"พระนครศรีอยุธยา"},"id":"10781","geometry":{"type":"Point","coordinates":[100.588374,14.6542815]}},{"type":"Feature","properties":{"h_name":"โรงพยาบาลราชธานี","address_th":"โรงพยาบาลราชธานี 111 หมู่ 3 ตำบลคลองสวนพลู อำเภอ พระนครศรีอยุธยา จังหวัดพระนครศรีอยุธยา 13000 ไทย","h_code":"11806","province":"พระนครศรีอยุธยา"},"id":"11806","geometry":{"type":"Point","coordinates":[100.608986,14.3429693]}},{"type":"Feature","properties":{"h_name":"โรงพยาบาลราชธานีโรจนะ","address_th":"รหัสไปรษณีย์ 78 หมู่ 3 ตำบล สามเรือน อำเภอบางปะอิน จังหวัดพระนครศรีอยุธยา 13160 ไทย","h_code":"24681","province":"พระนครศรีอยุธยา"},"id":"24681","geometry":{"type":"Point","coordinates":[100.655383,14.300023]}},{"type":"Feature","properties":{"h_name":"โรงพยาบาลอ่างทอง","address_th":"3 เทศบาล 6 ถนนเทศบาล 10 ตำบล บางแก้ว อำเภอเมืองอ่างทอง อ่างทอง 14000 ไทย","h_code":"10689","province":"อ่างทอง"},"id":"10689","geometry":{"type":"Point","coordinates":[100.4521518,14.584759]}},{"type":"Feature","properties":{"h_name":"โรงพยาบาลวิเศษชัยชาญ","address_th":"67 Moo 4 ตำบล ศาลเจ้าโรงทอง อำเภอ วิเศษชัยชาญ อ่างทอง 14110 ไทย","h_code":"10787","province":"อ่างทอง"},"id":"10787","geometry":{"type":"Point","coordinates":[100.3463519,14.5933487]}},{"type":"Feature","properties":{"h_name":"โรงพยาบาลโพธิ์ทอง","address_th":"82 ตำบล ตำบล บางพลับ อำเภอ โพธิ์ทอง อ่างทอง 14120 ไทย","h_code":"10785","province":"อ่างทอง"},"id":"10785","geometry":{"type":"Point","coordinates":[100.4089737,14.6503143]}},{"type":"Feature","properties":{"h_name":"โรงพยาบาลไชโย","address_th":"80 หมู่ที่ 5 ตำบล ไชโย อำเภอไชโย อ่างทอง 14140 ไทย","h_code":"10782","province":"อ่างทอง"},"id":"10782","geometry":{"type":"Point","coordinates":[100.4440649,14.7024531]}},{"type":"Feature","properties":{"h_name":"โรงพยาบาลสามโก้","address_th":"ตำบล สามโก้ อำเภอ สามโก้ อ่างทอง 14160 ไทย","h_code":"10788","province":"อ่างทอง"},"id":"10788","geometry":{"type":"Point","coordinates":[100.261166,14.604026]}},{"type":"Feature","properties":{"h_name":"โรงพยาบาลแสวงหา","address_th":"หมู่ 1 106 หมู่7 ตำบล แสวงหา อำเภอ แสวงหา อ่างทอง 14150 ไทย","h_code":"10786","province":"อ่างทอง"},"id":"10786","geometry":{"type":"Point","coordinates":[100.3240443,14.7454525]}},{"type":"Feature","properties":{"h_name":"โรงพยาบาลป่าโมก","address_th":"318/ข ตำบล ป่าโมก อำเภอ ป่าโมก อ่างทอง 14130 ไทย","h_code":"10784","province":"อ่างทอง"},"id":"10784","geometry":{"type":"Point","coordinates":[100.4435056,14.4969629]}},{"type":"Feature","properties":{"h_name":"โรงพยาบาลพระนารายณ์มหาราช","address_th":"260 ถ. พหลโยธิน ตำบล เขาสามยอด อำเภอเมืองลพบุรี ลพบุรี 15000 ไทย","h_code":"10690","province":"ลพบุรี"},"id":"10690","geometry":{"type":"Point","coordinates":[100.6525809,14.8049099]}},{"type":"Feature","properties":{"h_name":"โรงพยาบาลอานันทมหิดล","address_th":"35 หมู่ที่ 6 ตำบล เขาสามยอด อำเภอเมืองลพบุรี ลพบุรี 15000 ไทย","h_code":"11484","province":"ลพบุรี"},"id":"11484","geometry":{"type":"Point","coordinates":[100.6653167,14.8489474]}},{"type":"Feature","properties":{"h_name":"โรงพยาบาลบ้านหมี่","address_th":"139 ถนน ประชาอุทิศ ตำบล บ้านหมี่ อำเภอ บ้านหมี่ ลพบุรี 15110 ไทย","h_code":"10691","province":"ลพบุรี"},"id":"10691","geometry":{"type":"Point","coordinates":[100.5419535,15.044163]}},{"type":"Feature","properties":{"h_name":"โรงพยาบาลท่าวุ้ง","address_th":"ตำบล บางคู้ อำเภอท่าวุ้ง ลพบุรี 15150 ไทย","h_code":"10792","province":"ลพบุรี"},"id":"10792","geometry":{"type":"Point","coordinates":[100.5213927,14.8125732]}},{"type":"Feature","properties":{"h_name":"โรงพยาบาลชัยบาดาล","address_th":"250 ถ. สุรนารายณ์ ตำบล ลำนารายณ์ อำเภอชัยบาดาล ลพบุรี 15130 ไทย","h_code":"10791","province":"ลพบุรี"},"id":"10791","geometry":{"type":"Point","coordinates":[101.1457355,15.2155644]}},{"type":"Feature","properties":{"h_name":"โรงพยาบาลโคกสำโรง","address_th":"54/15 Moo 5 Sura Narai Rd ตำบล โคกสำโรง อำเภอ โคกสำโรง ลพบุรี 15120 ไทย","h_code":"10790","province":"ลพบุรี"},"id":"10790","geometry":{"type":"Point","coordinates":[100.73791,15.0685393]}},{"type":"Feature","properties":{"h_name":"โรงพยาบาลมะเร็งลพบุรี","address_th":"11/1 Tambon Tha Chet Sak ตำบลทะเลชุบศร อำเภอเมืองลพบุรี ลพบุรี 15000 ไทย","h_code":"14199","province":"ลพบุรี"},"id":"14199","geometry":{"type":"Point","coordinates":[100.6519318,14.8037413]}},{"type":"Feature","properties":{"h_name":"โรงพยาบาลพัฒนานิคม","address_th":"ตำบล พัฒนานิคม อำเภอพัฒนานิคม ลพบุรี 15140 ไทย","h_code":"10789","province":"ลพบุรี"},"id":"10789","geometry":{"type":"Point","coordinates":[100.9853045,14.8555215]}},{"type":"Feature","properties":{"h_name":"โรงพยาบาลโคกเจริญ","address_th":"ตำบล โคกเจริญ อำเภอ โคกเจริญ ลพบุรี 15250 ไทย","h_code":"10795","province":"ลพบุรี"},"id":"10795","geometry":{"type":"Point","coordinates":[100.8234574,15.3866097]}},{"type":"Feature","properties":{"h_name":"โรงพยาบาลหนองม่วง","address_th":"ตำบล หนองม่วง อำเภอ หนองม่วง ลพบุรี 15170 ไทย","h_code":"10797","province":"ลพบุรี"},"id":"10797","geometry":{"type":"Point","coordinates":[100.6662298,15.2120076]}},{"type":"Feature","properties":{"h_name":"โรงพยาบาลลำสนธิ","address_th":"79 111 หมู่3 ตำบล หนองรี อำเภอ ลำสนธิ ลพบุรี 15190 ไทย","h_code":"10796","province":"ลพบุรี"},"id":"10796","geometry":{"type":"Point","coordinates":[101.3234171,15.251959]}},{"type":"Feature","properties":{"h_name":"โรงพยาบาลท่าหลวง","address_th":"ตำบล ท่าหลวง อำเภอ ท่าหลวง ลพบุรี 15230 ไทย","h_code":"10793","province":"ลพบุรี"},"id":"10793","geometry":{"type":"Point","coordinates":[101.1243948,15.065499]}},{"type":"Feature","properties":{"h_name":"โรงพยาบาลสระโบสถ์","address_th":"ตำบล นิยมชัย อำเภอ สระโบสถ์ ลพบุรี 15240 ไทย","h_code":"10794","province":"ลพบุรี"},"id":"10794","geometry":{"type":"Point","coordinates":[100.8426609,15.1940733]}},{"type":"Feature","properties":{"h_name":"โรงพยาบาลเมืองนารายณ์","address_th":"84 หมู่3 ท่าศาลา เมือง ลพบุรี 15000 ไทย","h_code":"14948","province":"ลพบุรี"},"id":"14948","geometry":{"type":"Point","coordinates":[100.6779425,14.7868505]}},{"type":"Feature","properties":{"h_name":"โรงพยาบาลเบญจรมย์","address_th":"116 ตำบล ป่าตาล อำเภอเมืองลพบุรี ลพบุรี 15000 ไทย","h_code":"11812","province":"ลพบุรี"},"id":"11812","geometry":{"type":"Point","coordinates":[100.6308445,14.7904403]}},{"type":"Feature","properties":{"h_name":"โรงพยาบาลสิงห์บุรี","address_th":"3 917 ถนน ขุนสรรค์ ตำบล บางพุทรา อำเภอเมืองสิงห์บุรี สิงห์บุรี 16000 ไทย","h_code":"10692","province":"สิงห์บุรี"},"id":"10692","geometry":{"type":"Point","coordinates":[100.3976201,14.8967085]}},{"type":"Feature","properties":{"h_name":"โรงพยาบาลอินทร์บุรี","address_th":"37/7 ซอย หมู่ 1 ตำบล ทับยา อำเภออินทร์บุรี สิงห์บุรี 16110 ไทย","h_code":"10693","province":"สิงห์บุรี"},"id":"10693","geometry":{"type":"Point","coordinates":[100.3342251,14.9881801]}},{"type":"Feature","properties":{"h_name":"โรงพยาบาลค่ายบางระจัน","address_th":"ตำบล บางระจัน อำเภอ ค่ายบางระจัน สิงห์บุรี 16150 ไทย","h_code":"10799","province":"สิงห์บุรี"},"id":"10799","geometry":{"type":"Point","coordinates":[100.2930307,14.7866113]}},{"type":"Feature","properties":{"h_name":"โรงพยาบาลบางระจัน","address_th":"ตำบล เชิงกลัด อำเภอ บางระจัน สิงห์บุรี 16130 ไทย","h_code":"10798","province":"สิงห์บุรี"},"id":"10798","geometry":{"type":"Point","coordinates":[100.2745601,14.9221359]}},{"type":"Feature","properties":{"h_name":"โรงพยาบาลท่าช้าง","address_th":"ตำบล โพประจักษ์ อำเภอ ท่าช้าง สิงห์บุรี 16140 ไทย","h_code":"10801","province":"สิงห์บุรี"},"id":"10801","geometry":{"type":"Point","coordinates":[100.3859504,14.7940733]}},{"type":"Feature","properties":{"h_name":"โรงพยาบาลพรหมบุรี","address_th":"Moo 3 Asia Road ตำบล บ้านหม้อ อำเภอพรหมบุรี สิงห์บุรี 16120 ไทย","h_code":"10800","province":"สิงห์บุรี"},"id":"10800","geometry":{"type":"Point","coordinates":[100.4580287,14.7485444]}},{"type":"Feature","properties":{"h_name":"โรงพยาบาลชัยนาทนเรนทร","address_th":"199 5 ถ. พหลโยธิน ตำบล บ้านกล้วย อำเภอเมืองชัยนาท ชัยนาท 17000 ไทย","h_code":"10694","province":"ชัยนาท"},"id":"10694","geometry":{"type":"Point","coordinates":[100.1275927,15.1917249]}},{"type":"Feature","properties":{"h_name":"โรงพยาบาลสรรคบุรี","address_th":"108 Moo 8 ตำบล แพรกศรีราชา อำเภอ สรรคบุรี ชัยนาท 17140 ไทย","h_code":"10805","province":"ชัยนาท"},"id":"10805","geometry":{"type":"Point","coordinates":[100.1431718,15.0447764]}},{"type":"Feature","properties":{"h_name":"โรงพยาบาลหันคา","address_th":"210 Moo 2 ตำบล หันคา อำเภอ หันคา ชัยนาท 17130 ไทย","h_code":"10806","province":"ชัยนาท"},"id":"10806","geometry":{"type":"Point","coordinates":[99.9858399,14.9897548]}},{"type":"Feature","properties":{"h_name":"โรงพยาบาลสรรพยา","address_th":"162 Moo 5 ตำบล โพนางดำตก อำเภอสรรพยา ชัยนาท 17150 ไทย","h_code":"10804","province":"ชัยนาท"},"id":"10804","geometry":{"type":"Point","coordinates":[100.2653215,15.1057946]}},{"type":"Feature","properties":{"h_name":"โรงพยาบาลมโนรมย์","address_th":"ตำบล หางน้ำสาคร อำเภอมโนรมย์ ชัยนาท 17170 ไทย","h_code":"10802","province":"ชัยนาท"},"id":"10802","geometry":{"type":"Point","coordinates":[100.1853611,15.2967162]}},{"type":"Feature","properties":{"h_name":"โรงพยาบาลวัดสิงห์","address_th":"16 ตำบล วัดสิงห์ อำเภอ วัดสิงห์ ชัยนาท 17120 ไทย","h_code":"10803","province":"ชัยนาท"},"id":"10803","geometry":{"type":"Point","coordinates":[100.0392349,15.2590571]}},{"type":"Feature","properties":{"h_name":"โรงพยาบาลหนองมะโมง","address_th":"190 ม .1 อ หนอง มะ โมง, ตำบล หนองมะโมง ชัยนาท ไทย","h_code":"27974","province":"ชัยนาท"},"id":"27974","geometry":{"type":"Point","coordinates":[99.8668696,15.2724557]}},{"type":"Feature","properties":{"h_name":"โรงพยาบาลเนินขาม","address_th":"ตำบล เนินขาม อำเภอ เนินขาม ชัยนาท 17130 ไทย","h_code":"27975","province":"ชัยนาท"},"id":"27975","geometry":{"type":"Point","coordinates":[99.9108667,14.962976]}},{"type":"Feature","properties":{"h_name":"โรงพยาบาลรวมแพทย์ ชัยนาท","address_th":"170 บ้านกล้วย เมือง ชัยนาท 17000 ไทย","h_code":"11828","province":"ชัยนาท"},"id":"11828","geometry":{"type":"Point","coordinates":[100.139336,15.17871]}},{"type":"Feature","properties":{"h_name":"สถานีอนามัยเฉลิมพระเกียรติ 60 พรรษา นวมินทราชินี","address_th":"หมู่ 9, ตำบลห้วยกรด อำเภอสรรคบุรี ห้วยกรด สรรคบุรี ชัยนาท 17140 ไทย","h_code":"01646","province":"ชัยนาท"},"id":"01646","geometry":{"type":"Point","coordinates":[100.2022994,15.0960157]}},{"type":"Feature","properties":{"h_name":"โรงพยาบาลสระบุรี","address_th":"18 ถนน เทศบาล 4 ตำบล ปากเพรียว อำเภอเมืองสระบุรี สระบุรี 18000 ไทย","h_code":"10661","province":"สระบุรี"},"id":"10661","geometry":{"type":"Point","coordinates":[100.9157958,14.5341609]}},{"type":"Feature","properties":{"h_name":"โรงพยาบาลหนองแค","address_th":"115 ถ. พหลโยธิน ตำบล หนองแค อำเภอหนองแค สระบุรี 18140 ไทย","h_code":"10808","province":"สระบุรี"},"id":"10808","geometry":{"type":"Point","coordinates":[100.8699627,14.3512257]}},{"type":"Feature","properties":{"h_name":"โรงพยาบาลพระพุทธบาท","address_th":"ตำบล ธารเกษม อำเภอพระพุทธบาท สระบุรี 18120 ไทย","h_code":"10695","province":"สระบุรี"},"id":"10695","geometry":{"type":"Point","coordinates":[100.801937,14.7243162]}},{"type":"Feature","properties":{"h_name":"โรงพยาบาลแก่งคอย","address_th":"107 Moo 8 ตำบล แก่งคอย อำเภอแก่งคอย สระบุรี 18110 ไทย","h_code":"10807","province":"สระบุรี"},"id":"10807","geometry":{"type":"Point","coordinates":[101.0121606,14.5790581]}},{"type":"Feature","properties":{"h_name":"โรงพยาบาลค่ายอดิศร","address_th":"ตรงข้ามโลตัส สระบุรี ถ. มิตรภาพ ตำบล ปากเพรียว อำเภอเมืองสระบุรี สระบุรี 18000 ไทย","h_code":"11485","province":"สระบุรี"},"id":"11485","geometry":{"type":"Point","coordinates":[100.9215311,14.5194831]}},{"type":"Feature","properties":{"h_name":"โรงพยาบาลมวกเหล็ก","address_th":"ถ. มิตรภาพ ตำบลมิตรภาพ อำเภอมวกเหล็ก สระบุรี 18180 ไทย","h_code":"10815","province":"สระบุรี"},"id":"10815","geometry":{"type":"Point","coordinates":[101.197739,14.636412]}},{"type":"Feature","properties":{"h_name":"โรงพยาบาลเสาไห้เฉลิมพระเกียรติ80พรรษา","address_th":"หมู่ที่ 2 ตำบล เสาไห้ อำเภอ เสาไห้ สระบุรี 18160 ไทย","h_code":"10814","province":"สระบุรี"},"id":"10814","geometry":{"type":"Point","coordinates":[100.8500617,14.5480318]}},{"type":"Feature","properties":{"h_name":"โรงพยาบาลบ้านหมอ","address_th":"ตำบล บ้านหมอ อำเภอ บ้านหมอ สระบุรี 18130 ไทย","h_code":"10811","province":"สระบุรี"},"id":"10811","geometry":{"type":"Point","coordinates":[100.7331655,14.6126593]}},{"type":"Feature","properties":{"h_name":"โรงพยาบาลวิหารแดง","address_th":"จังหวัด สระบุรี อำเภอวิหารแดง สระบุรี 18150 ไทย","h_code":"10809","province":"สระบุรี"},"id":"10809","geometry":{"type":"Point","coordinates":[100.9707076,14.3702029]}},{"type":"Feature","properties":{"h_name":"โรงพยาบาลเกษมราษฏร์สระบุรี","address_th":"2/22 ถ. มิตรภาพ ตำบล ปากเพรียว อำเภอ เมืองสระบุรี สระบุรี 18000 ไทย","h_code":"11833","province":"สระบุรี"},"id":"11833","geometry":{"type":"Point","coordinates":[100.933334,14.5236433]}},{"type":"Feature","properties":{"h_name":"โรงพยาบาลวังม่วงสัทธรรม","address_th":"60 Moo 1 Kamphaengphet ตำบล วังม่วง อำเภอ วังม่วง สระบุรี 18220 ไทย","h_code":"10816","province":"สระบุรี"},"id":"10816","geometry":{"type":"Point","coordinates":[101.12049,14.842032]}},{"type":"Feature","properties":{"h_name":"โรงพยาบาลมิตรภาพเมโมเรียล สระบุรี","address_th":"9/1 ถ. มิตรภาพ ตำบล ปากเพรียว อำเภอเมืองสระบุรี สระบุรี 18000 ไทย","h_code":"11835","province":"สระบุรี"},"id":"11835","geometry":{"type":"Point","coordinates":[100.9153731,14.5204108]}},{"type":"Feature","properties":{"h_name":"โรงพยาบาลหนองโดน","address_th":"ตำบล หนองโดน อำเภอ หนองโดน สระบุรี 18190 ไทย","h_code":"10813","province":"สระบุรี"},"id":"10813","geometry":{"type":"Point","coordinates":[100.7138798,14.687245]}},{"type":"Feature","properties":{"h_name":"โรงพยาบาลหนองแซง","address_th":"ตำบล ไก่เส่า อำเภอ หนองแซง สระบุรี 18170 ไทย","h_code":"10810","province":"สระบุรี"},"id":"10810","geometry":{"type":"Point","coordinates":[100.788818,14.498674]}},{"type":"Feature","properties":{"h_name":"โรงพยาบาลดอนพุด","address_th":"ตำบล ดอนพุด อำเภอ ดอนพุด สระบุรี 18210 ไทย","h_code":"10812","province":"สระบุรี"},"id":"10812","geometry":{"type":"Point","coordinates":[100.625796,14.585837]}},{"type":"Feature","properties":{"h_name":"โรงพยาบาลบางละมุง","address_th":"669 ต.นาเกลือ, อำเภอบางละมุง ชลบุรี 20150 ไทย","h_code":"10819","province":"ชลบุรี"},"id":"10819","geometry":{"type":"Point","coordinates":[100.9060874,12.9667191]}},{"type":"Feature","properties":{"h_name":"โรงพยาบาลชลบุรี","address_th":"69 หมู่ที่ 2 ถ. สุขุมวิท ตำบล บ้านสวน อำเภอเมืองชลบุรี ชลบุรี 20000 ไทย","h_code":"10662","province":"ชลบุรี"},"id":"10662","geometry":{"type":"Point","coordinates":[100.9824486,13.351589]}},{"type":"Feature","properties":{"h_name":"โรงพยาบาลกรุงเทพพัทยาโรงพยาบาลทั่วไปขนาดใหญ่","address_th":"301 หมู่ที่ 6 ถ. สุขุมวิท เมืองพัทยา อำเภอบางละมุง ชลบุรี 20150 ไทย","h_code":"11850","province":"ชลบุรี"},"id":"11850","geometry":{"type":"Point","coordinates":[100.9059346,12.9538131]}},{"type":"Feature","properties":{"h_name":"โรงพยาบาลบ้านบึง","address_th":"3 ซ.19 ถ.บ้านบึง - ชลบุรี ตำบล บ้านบึง อำเภอบ้านบึง ชลบุรี 20170 ไทย","h_code":"10817","province":"ชลบุรี"},"id":"10817","geometry":{"type":"Point","coordinates":[101.109491,13.316326]}},{"type":"Feature","properties":{"h_name":"โรงพยาบาลสมเด็จพระบรมราชเทวี ณ ศรีราชา","address_th":"290 ถนน เจิมจอมพล ตำบล ศรีราชา อำเภอศรีราชา ชลบุรี 20110 ไทย","h_code":"13754","province":"ชลบุรี"},"id":"13754","geometry":{"type":"Point","coordinates":[100.9184756,13.1618315]}},{"type":"Feature","properties":{"h_name":"โรงพยาบาลมหาวิทยาลัยบูรพา","address_th":"169/382 ถนน ลงหาดบางแสน ตำบลแสนสุข อำเภอเมืองชลบุรี ชลบุรี 20131 ไทย","h_code":"13766","province":"ชลบุรี"},"id":"13766","geometry":{"type":"Point","coordinates":[100.922264,13.285218]}},{"type":"Feature","properties":{"h_name":"โรงพยาบาลสมิติเวชศรีราชา","address_th":"8 ซอย แหลมเกตุ อำเภอศรีราชา ชลบุรี 20110 ไทย","h_code":"11853","province":"ชลบุรี"},"id":"11853","geometry":{"type":"Point","coordinates":[100.9289205,13.1790413]}},{"type":"Feature","properties":{"h_name":"โรงพยาบาลเมืองพัทยา","address_th":"261, 40 ซอย บัวขาว เมืองพัทยา อำเภอบางละมุง ชลบุรี 20150 ไทย","h_code":"28005","province":"ชลบุรี"},"id":"28005","geometry":{"type":"Point","coordinates":[100.8844333,12.9278643]}},{"type":"Feature","properties":{"h_name":"โรงพยาบาลพนัสนิคม","address_th":"68 หมู่ที่ 6 ถนน ศุขประยูร ตำบล กุฏโง้ง อำเภอพนัสนิคม ชลบุรี 20140 ไทย","h_code":"10822","province":"ชลบุรี"},"id":"10822","geometry":{"type":"Point","coordinates":[101.1724349,13.4599834]}},{"type":"Feature","properties":{"h_name":"โรงพยาบาลแหลมฉบัง","address_th":"188/36 หมู่ที่ 6 ถ. สุขุมวิท ตำบล ทุ่งสุขลา อำเภอศรีราชา ชลบุรี 20230 ไทย","h_code":"10823","province":"ชลบุรี"},"id":"10823","geometry":{"type":"Point","coordinates":[100.9189939,13.1160314]}},{"type":"Feature","properties":{"h_name":"โรงพยาบาลพญาไทศรีราชา","address_th":"90 ศรีราชานคร 3 อำเภอศรีราชา ชลบุรี 20110 ไทย","h_code":"11855","province":"ชลบุรี"},"id":"11855","geometry":{"type":"Point","coordinates":[100.9281993,13.1688138]}},{"type":"Feature","properties":{"h_name":"โรงพยาบาลสมเด็จพระนางเจ้าสิริกิติ์","address_th":"163 หมู่ 1 ถ. สุขุมวิท ตำบล พลูตาหลวง อำเภอสัตหีบ ชลบุรี 20180 ไทย","h_code":"13758","province":"ชลบุรี"},"id":"13758","geometry":{"type":"Point","coordinates":[100.9815846,12.6882718]}},{"type":"Feature","properties":{"h_name":"โรงพยาบาลทั่วไป ขนาดกลาง สมิติเวช ชลบุรี","address_th":"888 88 หมู่ที่ 3 ถ. สุขุมวิท ตำบล บ้านสวน อำเภอเมืองชลบุรี ชลบุรี 20000 ไทย","h_code":"40768","province":"ชลบุรี"},"id":"40768","geometry":{"type":"Point","coordinates":[100.9761356,13.344851]}},{"type":"Feature","properties":{"h_name":"โรงพยาบาลพานทอง","address_th":"คลินิคพิเศษ 1/10 หมู่8 ตำบล พานทอง อำเภอพานทอง ชลบุรี 20160 ไทย","h_code":"10821","province":"ชลบุรี"},"id":"10821","geometry":{"type":"Point","coordinates":[101.0986051,13.4692811]}},{"type":"Feature","properties":{"h_name":"โรงพยาบาลพัทยาเมโมเรียล","address_th":"328 1 M.9 ถนน พัทยากลาง เมืองพัทยา อำเภอบางละมุง ชลบุรี 20150 ไทย","h_code":"11851","province":"ชลบุรี"},"id":"11851","geometry":{"type":"Point","coordinates":[100.8868654,12.9358105]}},{"type":"Feature","properties":{"h_name":"โรงพยาบาลสัตหีบกม10","address_th":"331 ทางหลวงยุทธศาสตร์ สัตหีบ - พนมสารคาม ตำบล พลูตาหลวง อำเภอสัตหีบ ชลบุรี 20180 ไทย","h_code":"10825","province":"ชลบุรี"},"id":"10825","geometry":{"type":"Point","coordinates":[100.9739744,12.6976625]}},{"type":"Feature","properties":{"h_name":"โรงพยาบาลวิภาราม อมตะนคร","address_th":"700/888 หมู่ 1 คลองตำหรุ เมืองชลบุรี ชลบุรี 20000 ไทย","h_code":"40750","province":"ชลบุรี"},"id":"40750","geometry":{"type":"Point","coordinates":[101.002989,13.421037]}},{"type":"Feature","properties":{"h_name":"โรงพยาบาลเอกชล","address_th":"31/2 ซอย นารถมนตเสวี ก/2 ตำบล เสม็ด อำเภอเมืองชลบุรี ชลบุรี 20000 ไทย","h_code":"11847","province":"ชลบุรี"},"id":"11847","geometry":{"type":"Point","coordinates":[100.9487746,13.3176696]}},{"type":"Feature","properties":{"h_name":"โรงพยาบาลค่ายนวมินทราชินี","address_th":"ตำบล บางทราย อำเภอเมืองชลบุรี ชลบุรี 20000 ไทย","h_code":"11486","province":"ชลบุรี"},"id":"11486","geometry":{"type":"Point","coordinates":[100.9938747,13.3815312]}},{"type":"Feature","properties":{"h_name":"โรงพยาบาลเอกชล 2","address_th":"31/2 ซอย นารถมนตเสวี ก/2 ตำบล เสม็ด อำเภอเมืองชลบุรี ชลบุรี 20000 ไทย","h_code":"23207","province":"ชลบุรี"},"id":"23207","geometry":{"type":"Point","coordinates":[100.9487746,13.3176696]}},{"type":"Feature","properties":{"h_name":"โรงพยาบาลเกาะสีชัง","address_th":"59 ตำบล ท่าเทววงษ์ อำเภอ เกาะสีชัง ชลบุรี 20120 ไทย","h_code":"10824","province":"ชลบุรี"},"id":"10824","geometry":{"type":"Point","coordinates":[100.8076679,13.1633638]}},{"type":"Feature","properties":{"h_name":"โรงพยาบาลวิภารามแหลมฉบัง","address_th":"ตำบลทุ่งสุขลา อำเภอศรีราชา ชลบุรี 20230 ไทย","h_code":"11854","province":"ชลบุรี"},"id":"11854","geometry":{"type":"Point","coordinates":[100.9179247,13.0877644]}},{"type":"Feature","properties":{"h_name":"โรงพยาบาลบ่อทอง","address_th":"หมู่ที่ 1 2 ตำบล บ่อทอง อำเภอบ่อทอง ชลบุรี 20270 ไทย","h_code":"10826","province":"ชลบุรี"},"id":"10826","geometry":{"type":"Point","coordinates":[101.4196894,13.282661]}},{"type":"Feature","properties":{"h_name":"โรงพยาบาลอาภากรเกียรติวงศ์","address_th":"ตำบล สัตหีบ อำเภอสัตหีบ ชลบุรี 20180 ไทย","h_code":"11487","province":"ชลบุรี"},"id":"11487","geometry":{"type":"Point","coordinates":[100.8957232,12.6621532]}},{"type":"Feature","properties":{"h_name":"โรงพยาบาลเกาะจันทร์","address_th":"ตำบล เกาะจันทร์ อำเภอเกาะจันทร์ ชลบุรี 20240 ไทย","h_code":"28006","province":"ชลบุรี"},"id":"28006","geometry":{"type":"Point","coordinates":[101.3351712,13.4246948]}},{"type":"Feature","properties":{"h_name":"โรงพยาบาลหนองใหญ่","address_th":"ห้างสูง หนองใหญ่ ชลบุรี ไทย หนองใหญ่ อำเภอหนองใหญ่ ชลบุรี 20190 ไทย","h_code":"10818","province":"ชลบุรี"},"id":"10818","geometry":{"type":"Point","coordinates":[101.363615,13.15718]}},{"type":"Feature","properties":{"h_name":"โรงพยาบาลมะเร็งชลบุรี","address_th":"หมู่ที่ 2 300 ตำบล เสม็ด อำเภอเมืองชลบุรี ชลบุรี 20000 ไทย","h_code":"13760","province":"ชลบุรี"},"id":"13760","geometry":{"type":"Point","coordinates":[100.9533913,13.3443959]}},{"type":"Feature","properties":{"h_name":"โรงพยาบาลวัดญาณสังวราราม","address_th":"33 หมู่ 11 อำเภอบางละมุง ชลบุรี 20150 ไทย","h_code":"10820","province":"ชลบุรี"},"id":"10820","geometry":{"type":"Point","coordinates":[100.9566809,12.7918292]}},{"type":"Feature","properties":{"h_name":"โรงพยาบาลจุฬารัตน์ ชลเวชโรงพยาบาลทั่วไปขนาดกลาง","address_th":"104/15 ซอยหน้าวัดต้นสน, ถนนอัคนิวาต ตำบลบางปลาสร้อย, อำเภอ เมืองชลบุรี, ชลบุรี 20000 ไทย","h_code":"11845","province":"ชลบุรี"},"id":"11845","geometry":{"type":"Point","coordinates":[100.986323,13.362889]}},{"type":"Feature","properties":{"h_name":"โรงพยาบาลปิยะเวชช์บ่อวิน","address_th":"28/8 หมู่ 8 ตำบล บ่อวิน อำเภอศรีราชา ชลบุรี 20230 ไทย","h_code":"23914","province":"ชลบุรี"},"id":"23914","geometry":{"type":"Point","coordinates":[101.1026079,13.0628702]}},{"type":"Feature","properties":{"h_name":"โรงพยาบาลทั่วไปขนาดเล็กบีเอ็มซี พลัส","address_th":"หมู่ที่ 2 238/15 ตำบล บางพระ อำเภอศรีราชา ชลบุรี 20110 ไทย","h_code":"31497","province":"ชลบุรี"},"id":"31497","geometry":{"type":"Point","coordinates":[100.9404003,13.2178161]}},{"type":"Feature","properties":{"h_name":"โรงพยาบาลพัทยาอินเตอร์เนชั่นแนลฮอสพิทอล","address_th":"328 1 M.9 ถนน พัทยากลาง เมืองพัทยา อำเภอบางละมุง ชลบุรี 20150 ไทย","h_code":"11852","province":"ชลบุรี"},"id":"11852","geometry":{"type":"Point","coordinates":[100.8868654,12.9358105]}},{"type":"Feature","properties":{"h_name":"โรงพยาบาลเฉพาะทางมะเร็งขนาดเล็กแคนเซอร์อลิอันซ์ ศรีราชา","address_th":"529 อำเภอศรีราชา ชลบุรี 20110 ไทย","h_code":"41711","province":"ชลบุรี"},"id":"41711","geometry":{"type":"Point","coordinates":[101.0036268,13.1499693]}},{"type":"Feature","properties":{"h_name":"สถานพยาบาลอมตะเวชกรรม","address_th":"ตำบล บ่อวิน อำเภอศรีราชา ชลบุรี 20230 ไทย","h_code":"28854","province":"ชลบุรี"},"id":"28854","geometry":{"type":"Point","coordinates":[101.072964,13.023573]}},{"type":"Feature","properties":{"h_name":"สำนักงานสาธารณสุขอำเภอบางละมุง","address_th":"เมืองพัทยา อำเภอบางละมุง ชลบุรี 20150 ไทย","h_code":"00159","province":"ชลบุรี"},"id":"00159","geometry":{"type":"Point","coordinates":[100.9136138,12.977158]}},{"type":"Feature","properties":{"h_name":"โรงพยาบาลระยอง","address_th":"138 ถ. สุขุมวิท ตำบล ท่าประดู่ อำเภอเมืองระยอง ระยอง 21000 ไทย","h_code":"10663","province":"ระยอง"},"id":"10663","geometry":{"type":"Point","coordinates":[101.2764781,12.6821032]}},{"type":"Feature","properties":{"h_name":"โรงพยาบาลแกลง","address_th":"254 ถ. สุขุมวิท ตำบล ทางเกวียน อำเภอแกลง ระยอง 21110 ไทย","h_code":"10829","province":"ระยอง"},"id":"10829","geometry":{"type":"Point","coordinates":[101.6706589,12.7856123]}},{"type":"Feature","properties":{"h_name":"โรงพยาบาลบ้านค่าย","address_th":"144 ถนนบ้านค่าย-ระยอง ตำบล หนองละลอก อำเภอบ้านค่าย ระยอง 21120 ไทย","h_code":"10831","province":"ระยอง"},"id":"10831","geometry":{"type":"Point","coordinates":[101.2927858,12.7781369]}},{"type":"Feature","properties":{"h_name":"โรงพยาบาลเฉลิมพระเกียรติสมเด็จพระเทพรัตนราชสุดาฯ สยามบรมราชกุมารี ระยอง","address_th":"111 ถ. สุขุมวิท ตำบล ห้วยโป่ง อำเภอเมืองระยอง ระยอง 21150 ไทย","h_code":"10827","province":"ระยอง"},"id":"10827","geometry":{"type":"Point","coordinates":[101.1364029,12.7305694]}},{"type":"Feature","properties":{"h_name":"โรงพยาบาลบ้านฉาง","address_th":"77 หมู่ที่ 1 ถ. สุขุมวิท ตำบล พลา อำเภอบ้านฉาง ระยอง 21130 ไทย","h_code":"10828","province":"ระยอง"},"id":"10828","geometry":{"type":"Point","coordinates":[101.043315,12.725929]}},{"type":"Feature","properties":{"h_name":"โรงพยาบาลวังจันทร์","address_th":"ตำบล ชุมแสง อำเภอวังจันทร์ ระยอง 21210 ไทย","h_code":"10830","province":"ระยอง"},"id":"10830","geometry":{"type":"Point","coordinates":[101.5291184,12.939547]}},{"type":"Feature","properties":{"h_name":"โรงพยาบาลกรุงเทพระยอง","address_th":"ตำบลเนินพระ อำเภอเมืองระยอง ระยอง 21000 ไทย","h_code":"15219","province":"ระยอง"},"id":"15219","geometry":{"type":"Point","coordinates":[101.2214653,12.6746347]}},{"type":"Feature","properties":{"h_name":"โรงพยาบาลปลวกแดง","address_th":"272 ถนนบำบัดโรคา ตำบล ปลวกแดง อำเภอปลวกแดง ระยอง 21140 ไทย","h_code":"10832","province":"ระยอง"},"id":"10832","geometry":{"type":"Point","coordinates":[101.2189753,12.9699764]}},{"type":"Feature","properties":{"h_name":"โรงพยาบาลนิคมพัฒนา","address_th":"สาย 13 ซอย 8 ตำบล พนานิคม อำเภอนิคมพัฒนา ระยอง 21180 ไทย","h_code":"23962","province":"ระยอง"},"id":"23962","geometry":{"type":"Point","coordinates":[101.142261,12.8699834]}},{"type":"Feature","properties":{"h_name":"โรงพยาบาลเขาชะเมา เฉลิมพระเกียรติ 80 พรรษา","address_th":"อำเภอ เขาชะเมา จังหวัด ระยอง ไทย ตำบล ห้วยทับมอญ อำเภอ เขาชะเมา ระยอง 21110 ไทย","h_code":"22734","province":"ระยอง"},"id":"22734","geometry":{"type":"Point","coordinates":[101.6731818,12.9880378]}},{"type":"Feature","properties":{"h_name":"โรงพยาบาลจุฬารัตน์ระยองโรงพยาบาลทั่วไปขนาดกลาง","address_th":"65 ซ. จันทอุดม ตำบล ท่าประดู่ อำเภอเมืองระยอง ระยอง 21000 ไทย","h_code":"11864","province":"ระยอง"},"id":"11864","geometry":{"type":"Point","coordinates":[101.2745722,12.6852329]}},{"type":"Feature","properties":{"h_name":"โรงพยาบาลศรีระยองโรงพยาบาลทั่วไปขนาดกลาง","address_th":"เลขที่ 333/3 หมู่ที่ 4 ตำบลเชิงเนิน อำเภอเมือง จังหวัดระยอง 21000 ตำบลเชิงเนิน อำเภอ เมืองระยอง ระยอง 21000 ไทย","h_code":"40757","province":"ระยอง"},"id":"40757","geometry":{"type":"Point","coordinates":[101.2924892,12.6953496]}},{"type":"Feature","properties":{"h_name":"โรงพยาบาลมงกุฎระยอง","address_th":"149/1 มาบยา ถนน มาบยา ตำบลมาบตาพุด อำเภอเมืองระยอง ระยอง 21000 ไทย","h_code":"14607","province":"ระยอง"},"id":"14607","geometry":{"type":"Point","coordinates":[101.1580306,12.7333585]}},{"type":"Feature","properties":{"h_name":"ปิยะเวชช์ ระยองโรงพยาบาลทั่วไปขนาดเล็ก","address_th":"288 ม .3 ต มา บ ยาง พร อำเภอ ปลวกแดง ระยอง ประเทศไทย ตำบล มาบยางพร อำเภอปลวกแดง ระยอง 21140 ไทย","h_code":"41632","province":"ระยอง"},"id":"41632","geometry":{"type":"Point","coordinates":[101.1365593,12.9887275]}},